検索キー,公開用_医療機関ID,医療機関名,正規化住所,経度,緯度,郵便番号,電話番号,オンライン予約用ページアドレス,相談センター等からの紹介,自院患者,濃厚接触者,小児,妊婦,区市町村,行政コード,大字,それ以降の住所,ビル名・階数・部屋番号,PCR,抗原定量,抗原定性,鼻咽頭,鼻腔,唾液,その他,月（午前）,月（午後）,火（午前）,火（午後）,水（午前）,水（午後）,木（午前）,木（午後）,金（午前）,金（午後）,土（午前）,土（午後）,日（午前）,日（午後）,対応できる外国語,診療検査日時が祝日の場合,それ以降の住所
医療法人社団リーレ リーレクリニック大手町大手町１-３-２,100001,医療法人社団リーレ リーレクリニック大手町,東京都千代田区大手町1-3-2,139.7635534,35.68866256,100-0004,03-5224-6672,,1,1,,,,千代田区,13101,大手町,１-３-２,,1,,1,1,1,1,,9:15~13:30;,15:00~18:00;,9:15~13:30;,15:00~18:00;,9:15~13:30;,15:00~18:00;,9:15~13:30;,15:00~18:00;,9:15~13:30;,15:00~18:00;,,,,,,0,大手町１-３-２
クリニックフォア大手町大手町1-2-1 Otemachi One 地下1F,100002,クリニックフォア大手町,東京都千代田区大手町1-2-1,139.7624705,35.68791962,100-0004,web予約,https://www.clinicfor.life/otemachi/,1,1,,,,千代田区,13101,大手町,1-2-1,Otemachi One 地下1F,,,,,,,,11:00~13:00;,16:00~18:00;,11:00~13:00;,16:00~18:00;,11:00~13:00;,16:00~18:00;,11:00~13:00;,16:00~18:00;,11:00~13:00;,16:00~18:00;,,,,,,0,大手町1-2-1 Otemachi One 地下1F
東京ビジネスクリニック 八重洲北口丸の内1-8-2 鉄鋼ビルディング地下1階,100003,東京ビジネスクリニック 八重洲北口,東京都千代田区丸の内1-8-2,139.7697832,35.68230375,100-0005,03-6268-0079,,1,1,1,1,1,千代田区,13101,丸の内,1-8-2,鉄鋼ビルディング地下1階,1,1,1,1,1,1,,9:00~13:00;,13:00~21:00;,9:00~13:00;,13:00~21:00;,9:00~13:00;,13:00~21:00;,9:00~13:00;,13:00~21:00;,9:00~13:00;,13:00~21:00;,9:00~13:00;,13:00~21:00;,9:00~13:00;,13:00~21:00;,英語、中国語、韓国語,1,丸の内1-8-2 鉄鋼ビルディング地下1階
医療法人社団公颯会 東商ビル診療所丸の内3-2-2 丸の内二重橋ビルディング地下1階,100004,医療法人社団公颯会 東商ビル診療所,東京都千代田区丸の内3-2-2,139.7613797,35.67780141,100-0005,03-3283-7781,,1,1,1,1,1,千代田区,13101,丸の内,3-2-2,丸の内二重橋ビルディング地下1階,1,,1,1,1,1,,13:00~14:00;,,13:00~14:00;,,13:00~14:00;,,13:00~14:00;,,13:00~14:00;,,,,,,英語,0,丸の内3-2-2 丸の内二重橋ビルディング地下1階
東京ビジネスクリニック グランスタ丸の内丸の内1-9-1 JR東日本東京駅構内地下1階,100005,東京ビジネスクリニック グランスタ丸の内,東京都千代田区丸の内1-9-1,139.7661852,35.68172988,100-0005,03-6259-1605,,1,1,1,1,1,千代田区,13101,丸の内,1-9-1,JR東日本東京駅構内地下1階,1,1,1,1,1,1,,9:00~13:00;,13:00~21:00;,9:00~13:00;,13:00~21:00;,9:00~13:00;,13:00~21:00;,9:00~13:00;,13:00~21:00;,9:00~13:00;,13:00~21:00;,9:00~13:00;,13:00~21:00;,9:00~13:00;,13:00~21:00;,英語、中国語、韓国語,1,丸の内1-9-1 JR東日本東京駅構内地下1階
日比谷クリニック有楽町1-7-1有楽町電気ビル南館３階,100006,日比谷クリニック,東京都千代田区有楽町1-7-1,139.7615149,35.67458846,100-0006,03-3215-1105,,1,1,1,1,1,千代田区,13101,有楽町,1-7-1,有楽町電気ビル南館３階,1,1,1,1,1,1,1,10:00~13:00;,14:30~19:00;,10:00~13:00;,14:30~19:00;,10:00~13:00;,14:30~19:00;,10:00~13:00;,14:30~19:00;,10:00~13:00;,14:30~19:00;,,,,,英語のほかに、通訳を通じて３者会話や翻訳機を使って各国の言語に対応可能。,0,有楽町1-7-1有楽町電気ビル南館３階
医療法人社団渡航者健診クリニック有楽町１-７-１有楽町電気ビル南館３階,100007,医療法人社団渡航者健診クリニック,東京都千代田区有楽町1-7-1,139.7615149,35.67458846,100-0006,03-3212-0105,,1,1,1,1,1,千代田区,13101,有楽町,１-７-１,有楽町電気ビル南館３階,1,1,1,1,1,1,1,9:00~13:00;,14:30~18:00;,9:00~13:00;,14:30~18:00;,9:00~13:00;,14:30~18:00;,9:00~13:00;,14:30~18:00;,9:00~13:00;,14:30~18:00;,,,,,英語、それ以外の外国語は翻訳機や通訳者との３者通訳を通じて対応可能。,0,有楽町１-７-１有楽町電気ビル南館３階
医療法人社団青十字会 日比谷国際クリニック内幸町2-2-3 日比谷国際ビル地下一回,100008,医療法人社団青十字会 日比谷国際クリニック,東京都千代田区内幸町2-2-3,139.7543141,35.67032622,100-0011,03-3503-3460,,1,1,1,,,千代田区,13101,内幸町,2-2-3,日比谷国際ビル地下一回,1,1,1,1,1,,1,,,,,,,,,,14:00~17:00;,,,,,,,内幸町2-2-3 日比谷国際ビル地下一回
中田クリニック内幸町２-２-１-Ｂ１ 中田クリニック,100009,中田クリニック,東京都千代田区内幸町2-2-1,139.7542612,35.67094497,100-0011,03-5511-7770,,1,1,1,,,千代田区,13101,内幸町,２-２-１,Ｂ１ 中田クリニック,1,,1,1,,1,,9:00~13:00;,15:00~19:00;,9:00~13:00;,15:00~19:00;,,15:00~19:00;,9:00~13:00;,15:00~19:00;,9:00~13:00;,15:00~19:00;,9:00~13:00;,,,,,0,内幸町２-２-１-Ｂ１ 中田クリニック
医療法人社団正誠会林医院外神田3-7-1,100010,医療法人社団正誠会林医院,東京都千代田区外神田3-7-1,139.770134,35.70210331,101-0021,03-3253-7436,,1,1,1,,,千代田区,13101,外神田,3-7-1,,,,1,,1,,,,12:00~14:00;,,12:00~14:00;,,12:00~14:00;,,12:00~14:00;,,12:00~14:00;,,12:00~14:00;,,,,0,外神田3-7-1
神田すこやかクリニック神田須田町1-30-1パークホームズ千代田淡路町104,100012,神田すこやかクリニック,東京都千代田区神田須田町1-30-1,139.7696217,35.6950012,101-0041,web予約,https://www.kanda-sukoyaka.com/contact/,1,1,1,,,千代田区,13101,神田須田町,1-30-1,パークホームズ千代田淡路町104,1,,1,1,1,1,,,13:00~17:00;,,13:00~17:00;,,13:00~17:00;,,13:00~17:00;,,13:00~17:00;,,,,,,0,神田須田町1-30-1パークホームズ千代田淡路町104
二宮内科クリニック鍛冶町1-9-1 第２大久保ビル3F,100013,二宮内科クリニック,東京都千代田区鍛冶町1-9-1,139.7724477,35.69044337,101-0044,03-3254-5007,,1,1,1,,,千代田区,13101,鍛冶町,1-9-1,第２大久保ビル3F,1,,1,1,1,1,,13:00~13:30;,16:00~17:00;,,,13:00~13:30;,16:00~17:00;,13:00~14:00;,,13:00~13:30;,16:00~17:00;,,,,,,0,鍛冶町1-9-1 第２大久保ビル3F
神田駅前クリニック内科内神田3-13-2　松尾ビル５階,100014,神田駅前クリニック内科,東京都千代田区内神田3-13-2,139.7703854,35.69161835,101-0047,03-6285-2822,,1,1,1,1,1,千代田区,13101,内神田,3-13-2,松尾ビル５階,1,1,1,1,1,1,1,,16:00~20:00;,,,,,,16:00~20:00;,,16:00~20:00;,,16:00~20:00;,,,英語可。他の外国語の方でも音声、文字アプリで対応可なら対応いたします。,1,内神田3-13-2　松尾ビル５階
あさのクリニック内神田1-15-12,100015,あさのクリニック,東京都千代田区内神田1-15-12,139.7658894,35.69221497,101-0047,web予約,https://asano-clinic.info/pcr/,1,1,1,1,,千代田区,13101,内神田,1-15-12,,1,,1,1,,1,,10:00~15:00;,18:00~22:00;,10:00~15:00;,17:00~22:00;,10:00~15:00;,17:00~22:00;,,18:00~22:00;,10:00~15:00;,17:00~22:00;,,,,,英語,0,内神田1-15-12
医療法人社団伸陽会神保町消化器科・内科神田神保町2-9-1- 4階,100016,医療法人社団伸陽会神保町消化器科・内科,東京都千代田区神田神保町2-9-1,139.7558851,35.6953962,101-0051,03-3515-3171,,1,1,1,,,千代田区,13101,神田神保町,2-9-1,4階,1,,1,1,1,1,,,16:00~18:00;,,16:00~18:00;,,16:00~18:00;,,16:00~18:00;,,16:00~18:00;,9:30~12:00;,,,,英語,0,神田神保町2-9-1- 4階
医療法人社団誠和堂神田三崎町2-20-1,100017,医療法人社団誠和堂,東京都千代田区神田三崎町2-20-1,139.7532738,35.70184649,101-0061,03-3261-9679,,1,1,,,,千代田区,13101,神田三崎町,2-20-1,,1,,1,1,,1,,,18:00~19:00;,,18:00~19:00;,,18:00~19:00;,,,,18:00~19:00;,12:00~13:00;,,,,なし,0,神田三崎町2-20-1
お茶の水耳鼻咽喉科・アレルギー科神田駿河台2-10-6VORT御茶ノ水2階,100018,お茶の水耳鼻咽喉科・アレルギー科,東京都千代田区神田駿河台2-10-6,139.764269,35.69881124,101-0062,03-5843-9226,,1,1,1,1,1,千代田区,13101,神田駿河台,2-10-6,VORT御茶ノ水2階,1,,1,1,,1,,10:00~13:00;,15:30~18:30;,,15:30~18:30;,10:00~13:00;,15:30~18:30;,10:00~13:00;,15:30~18:30;,10:00~13:00;,15:30~18:30;,,,,,,0,神田駿河台2-10-6VORT御茶ノ水2階
医療法人財団駿愛会 駿河台診療所診療所神田駿河台2丁目1-45ニュー駿河台ビル5階,100019,医療法人財団駿愛会 駿河台診療所診療所,東京都千代田区神田駿河台2丁目1-45,139.7625947,35.69898793,101-0062,03-3219-1121,,1,1,1,,,千代田区,13101,神田駿河台,2丁目1-45,ニュー駿河台ビル5階,1,,1,1,1,1,,10:00~13:00;,14:00~17:00;,10:00~13:00;,14:00~17:00;,10:00~13:00;,14:00~17:00;,10:00~13:00;,,10:00~13:00;,14:00~17:00;,,,,,,0,神田駿河台2丁目1-45ニュー駿河台ビル5階
医療法人社団 縁風会 ユアクリニックお茶の水神田駿河台２-４ 日健ビル３F,100020,医療法人社団 縁風会 ユアクリニックお茶の水,東京都千代田区神田駿河台2-4,139.7635883,35.69950048,101-0062,03-3259-1190,,1,1,1,,,千代田区,13101,神田駿河台,２-４,日健ビル３F,1,,1,1,,1,,,,12:30~13:00;,,,,12:30~13:00;,,,,,,,,英語,0,神田駿河台２-４ 日健ビル３F
水道橋メディカルクリニック西神田1-4-11サンポウ水道橋ビル301,100021,水道橋メディカルクリニック,東京都千代田区西神田1-4-11,139.7570182,35.69995231,101-0065,03-3518-6127,,1,1,1,,,千代田区,13101,西神田,1-4-11,サンポウ水道橋ビル301,1,,,,,1,,,16:00~18:00;,,,,,,,,16:00~18:00;,,,,,,0,西神田1-4-11サンポウ水道橋ビル301
医療法人社団駿昭会 小池内科富士見2-13-16,100022,医療法人社団駿昭会 小池内科,東京都千代田区富士見2-13-16,139.7440658,35.69827383,102-0071,03-3265-0203,,1,1,1,2,1,千代田区,13101,富士見,2-13-16,,1,,1,,1,1,,9:00~12:00;,13:00~18:00;,9:00~12:00;,13:00~18:00;,9:00~12:00;,13:00~18:00;,9:00~12:00;,13:00~18:00;,9:00~12:00;,13:00~18:00;,9:00~12:00;,12:00~15:00;,,,なし,1,富士見2-13-16
医療法人社団CFI  クリニックフォア飯田橋富士見2-7-1 飯田橋プラーノ 1F,100023,医療法人社団CFI  クリニックフォア飯田橋,東京都千代田区富士見2-7-1,139.7450296,35.70062517,102-0071,web予約,https://reservation.clinicfor.life/c/iidabashi,1,1,1,,,千代田区,13101,富士見,2-7-1,飯田橋プラーノ 1F,1,1,1,1,1,1,1,9:30~14:30;,16:00~21:00;,9:30~14:30;,16:00~21:00;,9:30~14:30;,16:00~21:00;,9:30~14:30;,16:00~21:00;,9:30~14:30;,16:00~21:00;,9:00~13:00;,14:00~18:00;,9:00~13:00;,14:00~18:00;,英語、中国語,1,富士見2-7-1 飯田橋プラーノ 1F
医療法人社団慶洋会 ケイアイ飯田橋クリニック飯田橋3-10-10 ガーデンエアタワー2階,100024,医療法人社団慶洋会 ケイアイ飯田橋クリニック,東京都千代田区飯田橋3-10-10,139.7505415,35.70032228,102-0072,03-3239-2777,,1,1,1,,,千代田区,13101,飯田橋,3-10-10,ガーデンエアタワー2階,1,,1,,1,1,,9:00~13:00;,15:00~18:00;,9:00~13:00;,15:00~18:00;,9:00~13:00;,15:00~18:00;,9:00~13:00;,15:00~18:00;,9:00~13:00;,15:00~18:00;,,,,,,0,飯田橋3-10-10 ガーデンエアタワー2階
やじまクリニック飯田橋1-8-9-201,100025,やじまクリニック,東京都千代田区飯田橋1-8-9,139.7484116,35.69951557,102-0072,03-3261-7853,,1,1,,,,千代田区,13101,飯田橋,1-8-9,201,,,1,1,,,,10:00~12:00;,15:00~17:00;,10:00~12:00;,15:00~17:00;,,,10:00~12:00;,15:00~17:00;,10:00~12:00;,15:00~17:00;,10:00~12:00;,13:00~13:00;,,,,0,飯田橋1-8-9-201
洋洋クリニック富士見２-１０-２ 飯田橋グランブルーム サクラテラス３Ｆ,100026,洋洋クリニック,東京都千代田区富士見2-10-2,139.7438087,35.698928,102-0072,03-6272-3318,,1,1,1,1,1,千代田区,13101,富士見,２-１０-２,飯田橋グランブルーム サクラテラス３Ｆ,1,,,1,,1,,,13:00~16:00;,,13:00~16:00;,,13:00~16:00;,,13:00~16:00;,,13:00~16:00;,,,,,,0,富士見２-１０-２ 飯田橋グランブルーム サクラテラス３Ｆ
九段下駅前まめクリニック九段北1-3-2大橋ビル3階,100027,九段下駅前まめクリニック,東京都千代田区九段北1-3-2,139.7515201,35.69577347,102-0073,web予約,https://reza.3bees.com/p/8bdd/online_reservations,1,1,1,,,千代田区,13101,九段北,1-3-2,大橋ビル3階,1,,,,,1,,10:00~13:00;,18:00~22:00;,10:00~13:00;,18:00~22:00;,10:00~13:00;,18:00~22:00;,10:00~13:00;,18:00~22:00;,10:00~13:00;,18:00~22:00;,,13:00~18:00;,10:00~12:00;,13:00~18:00;,,1,九段北1-3-2大橋ビル3階
九段下駅前ココクリニック九段北1-2-1 九段中央ビル3階,100028,九段下駅前ココクリニック,東京都千代田区九段北1-2-1,139.7521694,35.69584048,102-0073,03-5212-5551,,1,1,1,,,千代田区,13101,九段北,1-2-1,九段中央ビル3階,1,1,1,1,1,1,,12:00~13:00;,14:00~15:00;,12:00~13:00;,14:00~15:00;,12:00~13:00;,14:00~15:00;,12:00~13:00;,14:00~15:00;,12:00~13:00;,14:00~15:00;,,,,,英語,,九段北1-2-1 九段中央ビル3階
医療法人社団Nobisuko 半蔵門のびすここどもクリニック一番町4-16,100029,医療法人社団Nobisuko 半蔵門のびすここどもクリニック,東京都千代田区一番町4-16,139.7427623,35.68790575,102-0082,03-6261-7540,,1,1,1,1,1,千代田区,13101,一番町,4-16,,1,,1,1,,1,,9:00~11:00;,16:00~18:00;,9:00~11:00;,16:00~18:00;,9:00~11:00;,16:00~18:00;,9:30~11:30;,,9:00~11:00;,16:00~18:00;,9:00~12:00;,,,,,0,一番町4-16
佐々木内科クリニック麹町4-4-6麹町4丁目小倉ビル2階,100030,佐々木内科クリニック,東京都千代田区麹町4-4-6,139.7352197,35.68424663,102-0083,03-3264-3635,,1,1,1,1,,千代田区,13101,麹町,4-4-6,麹町4丁目小倉ビル2階,1,,,,,1,,,15:00~17:00;,,15:00~17:00;,,,,15:00~17:00;,,15:00~17:00;,,,,,,0,麹町4-4-6麹町4丁目小倉ビル2階
グローバルヘルスケアクリニック麹町3-12-2 麹町MSビル1階,100031,グローバルヘルスケアクリニック,東京都千代田区麹町3-12-2,139.7381796,35.68500038,102-0083,03-3222-8832,,1,1,1,1,1,千代田区,13101,麹町,3-12-2,麹町MSビル1階,1,,1,1,1,1,,10:00~13:00;,14:30~19:00;,10:00~13:00;,14:30~19:00;,10:00~13:00;,14:30~19:00;,10:00~13:00;,14:30~19:00;,10:00~13:00;,14:30~19:00;,10:00~13:00;,,,,英語・他言語は多言語電話通訳により対応可能,0,麹町3-12-2 麹町MSビル1階
常喜医院六番町７-1番町グロリアビル１階,100032,常喜医院,東京都千代田区六番町7-1番町,139.7344548,35.68736022,102-0085,web予約,"http://joki-clinic.jp/info.html
オンライン予約後も受診前に必ず電話連絡必要(直接来院不可）電話予約も可",1,1,1,1,1,千代田区,13101,六番町,７-1番町,グロリアビル１階,1,,1,1,,1,,,13:00~17:00;,,13:00~17:00;,,13:00~17:00;,,13:00~17:00;,,,,13:00~17:00;,,,,0,六番町７-1番町グロリアビル１階
大森胃腸科隼町2-15,100033,大森胃腸科,東京都千代田区隼町2-15,139.7419649,35.68307929,102-0092,03-3234-6226,,1,1,1,1,,千代田区,13101,隼町,2-15,,1,,1,1,1,1,,11:30~12:30;,,11:30~12:30;,,11:30~12:30;,,11:30~12:30;,,11:30~12:30;,,,,,,なし,0,隼町2-15
コハシ文春ビル診療所紀尾井町3-23文藝春秋新館,100034,コハシ文春ビル診療所,東京都千代田区紀尾井町3-23,139.7374841,35.6825073,102-0094,03-3264-4673,,1,1,,,1,千代田区,13101,紀尾井町,3-23,文藝春秋新館,1,1,1,1,1,1,,,14:00~17:00;,,14:00~17:00;,,,,14:00~17:00;,,14:00~17:00;,,,,,英語,0,紀尾井町3-23文藝春秋新館
東京逓信病院富士見2-14-23,100035,東京逓信病院,東京都千代田区富士見2-14-23,139.7432555,35.69758178,102-8798,03-5214-7111,,1,1,,,,千代田区,13101,富士見,2-14-23,,1,1,,1,,1,,9:00~12:00;,0:00~16:00;,9:00~12:00;,0:00~16:00;,9:00~12:00;,0:00~16:00;,9:00~12:00;,0:00~16:00;,9:00~12:00;,0:00~16:00;,,,,,,0,富士見2-14-23
日本橋循環器科クリニック日本橋小伝馬町13-4共同ビル201,100036,日本橋循環器科クリニック,東京都中央区日本橋小伝馬町13-4,139.7792494,35.69091402,103-0001,03-5641-4133,,1,1,,,,中央区,13102,日本橋小伝馬町,13-4,共同ビル201,,,,,,,,,19:00~20:00;,13:00~14:00;,19:00~20:00;,13:00~14:00;,19:00~20:00;,13:00~14:00;,19:00~20:00;,13:00~14:00;,19:00~20:00;,,,,,日本語,0,日本橋小伝馬町13-4共同ビル201
日本橋かわまた内科クリニック日本橋富沢町10-18,100037,日本橋かわまた内科クリニック,東京都中央区日本橋富沢町10-18,139.7820467,35.68941102,103-0006,03-3669-2626,,1,1,1,1,1,中央区,13102,日本橋富沢町,10-18,,1,,1,1,,1,,11:00~13:00;,17:00~18:00;,11:00~13:00;,17:00~18:00;,11:00~13:00;,17:00~18:00;,10:00~13:00;,15:00~18:00;,11:00~13:00;,17:00~18:00;,10:00~13:00;,,,,,0,日本橋富沢町10-18
トルナーレ内科外科日本橋浜町3-3-1-208,100038,トルナーレ内科外科,東京都中央区日本橋浜町3-3-1,139.7883482,35.6848096,103-0007,03-3664-7708,,1,1,1,,,中央区,13102,日本橋浜町,3-3-1,208,1,,1,1,1,1,,9:00~11:30;,14:00~15:30;,9:00~11:30;,14:00~15:30;,9:00~11:30;,14:00~15:30;,9:00~11:30;,14:00~15:30;,,,9:00~11:30;,14:00~15:30;,,,,0,日本橋浜町3-3-1-208
日本橋浜町クリニック日本橋浜町2-38-3,100039,日本橋浜町クリニック,東京都中央区日本橋浜町2-38-3,139.7871595,35.68866344,103-0007,03-3663-1811,,1,1,1,1,,中央区,13102,日本橋浜町,2-38-3,,1,,1,1,,1,,,15:00~18:00;,,15:00~18:00;,,15:00~18:00;,,16:00~18:00;,,15:00~18:00;,,,,,,0,日本橋浜町2-38-3
さいとう内科・循環器クリニック日本橋大伝馬町13-8メディカルプライム日本橋小伝馬町3階,100040,さいとう内科・循環器クリニック,東京都中央区日本橋大伝馬町13-8,139.7810998,35.69101326,103-0011,03-3639-3110,,1,1,1,1,1,中央区,13102,日本橋大伝馬町,13-8,メディカルプライム日本橋小伝馬町3階,1,,1,,1,1,,12:00~13:00;,,12:00~13:00;,15:00~16:00;,12:00~13:00;,15:00~16:00;,12:00~13:00;,15:00~16:00;,12:00~13:00;,15:00~16:00;,12:00~13:00;,,,,,0,日本橋大伝馬町13-8メディカルプライム日本橋小伝馬町3階
医療法人社団銀座木原会 日本橋木原クリニック日本橋堀留町２-８-５デンヨービル１階,100041,医療法人社団銀座木原会 日本橋木原クリニック,東京都中央区日本橋堀留町2-8-5,139.7816615,35.68872777,103-0012,03-5651-1113,,1,1,,,,中央区,13102,日本橋堀留町,２-８-５,デンヨービル１階,1,,,,,1,,12:00~13:00;,,12:00~13:00;,,12:00~13:00;,,12:00~13:00;,,12:00~13:00;,,,,,,,0,日本橋堀留町２-８-５デンヨービル１階
水天宮前小児科日本橋人形町2-12-11 水天宮MYビル３０１,100042,水天宮前小児科,東京都中央区日本橋人形町2-12-11,139.784718,35.68479062,103-0013,03-3639-0021,,1,1,,2,,中央区,13102,日本橋人形町,2-12-11,水天宮MYビル３０１,,,1,1,1,,,10:00~11:00;,,10:00~11:00;,,,,10:00~11:00;,,10:00~11:00;,,,,,,,0,日本橋人形町2-12-11 水天宮MYビル３０１
内科総合クリニック人形町日本橋人形町1-6-10， ユニコム人形町ビル1階,100043,内科総合クリニック人形町,東京都中央区日本橋人形町1-6-10,139.7821953,35.68458505,103-0013,web予約,https://ningyocho.reserve.ne.jp/sp/index.php?history-index.php%3Fcms_type%3Dfever%26no_cache%3D16424,1,1,1,2,2,中央区,13102,日本橋人形町,1-6-10,ユニコム人形町ビル1階,1,,1,1,1,1,,9:00~13:00;,15:00~18:00;,9:00~13:00;,15:00~18:00;,9:00~13:00;,15:00~18:00;,9:00~13:00;,,9:00~13:00;,15:00~18:00;,9:00~13:00;,,,,英語,0,日本橋人形町1-6-10， ユニコム人形町ビル1階
水天宮前いきいきクリニック内科・呼吸器内科日本橋蛎殻町1-29-6水天宮前東急ビル2階,100044,水天宮前いきいきクリニック内科・呼吸器内科,東京都中央区日本橋蛎殻町1-29-6,139.7838805,35.68330006,103-0014,03-3665-1159,,1,1,,,,中央区,13102,日本橋蛎殻町,1-29-6,水天宮前東急ビル2階,1,,1,1,1,1,,,18:30~20:30;,,18:30~20:30;,,18:30~20:30;,,,,18:30~20:30;,,13:00~14:00;,,,,0,日本橋蛎殻町1-29-6水天宮前東急ビル2階
箱崎診療所日本橋箱崎町32-9 猪子ビル1階,100045,箱崎診療所,東京都中央区日本橋箱崎町32-9,139.7874296,35.68085443,103-0015,03-6661-6688,,1,1,1,,,中央区,13102,日本橋箱崎町,32-9,猪子ビル1階,1,,,,,1,,,19:00~21:00;,,19:00~21:00;,,19:00~21:00;,,19:00~21:00;,,19:00~21:00;,,,,,英語少々,0,日本橋箱崎町32-9 猪子ビル1階
医療法人社団 小池医院日本橋室町1-12-9,100046,医療法人社団 小池医院,東京都中央区日本橋室町1-12-9,139.7754919,35.686201,103-0022,03-3271-0813,,1,1,1,1,,中央区,13102,日本橋室町,1-12-9,,1,1,1,1,,1,,10:00~12:00;,14:00~17:00;,10:00~12:00;,14:00~17:00;,10:00~12:00;,14:00~17:00;,10:00~12:00;,14:00~17:00;,10:00~14:00;,12:00~17:00;,10:00~12:00;,,,,,0,日本橋室町1-12-9
セントラルクリニック日本橋茅場町２-７-９,100047,セントラルクリニック,東京都中央区日本橋茅場町2-7-9,139.7793849,35.67944108,103-0025,03-3669-1238,,1,1,1,,,中央区,13102,日本橋茅場町,２-７-９,,,,1,,1,,,9:00~11:00;,,9:00~11:00;,,9:00~11:00;,,9:00~11:00;,,9:00~11:00;,,,,,,,0,日本橋茅場町２-７-９
医療法人社団千秋双葉会日本橋茅場町耳鼻咽喉科日本橋茅場町2-8-10碧山ビル3階,100048,医療法人社団千秋双葉会日本橋茅場町耳鼻咽喉科,東京都中央区日本橋茅場町2-8-10,139.7789746,35.67927608,103-0025,03-3669-2085,,1,1,1,,,中央区,13102,日本橋茅場町,2-8-10,碧山ビル3階,1,,,,,1,,12:00~14:00;,14:00~16:00;,12:00~14:00;,14:00~16:00;,12:00~14:00;,14:00~16:00;,12:00~14:00;,14:00~16:00;,12:00~14:00;,14:00~16:00;,0:00~0:00;,0:00~0:00;,0:00~0:00;,0:00~0:00;,,0,日本橋茅場町2-8-10碧山ビル3階
医療法人社団健創会 八重洲街診療所日本橋2-2-20日本橋仲通りビル3階,100049,医療法人社団健創会 八重洲街診療所,東京都中央区日本橋2-2-20,139.7719681,35.68202958,103-0027,03-3271-1828,,1,1,1,,,中央区,13102,日本橋,2-2-20,日本橋仲通りビル3階,1,,1,1,1,1,,9:30~12:30;,14:00~17:00;,9:30~12:30;,14:00~17:00;,9:30~13:30;,,9:30~12:30;,14:00~17:00;,9:30~12:30;,14:00~17:00;,,,,,,0,日本橋2-2-20日本橋仲通りビル3階
日本橋れいわ内科日本橋3-2-15-1F,100050,日本橋れいわ内科,東京都中央区日本橋3-2-15,139.7712171,35.68048806,103-0027,03-3241-2808,,1,1,1,,,中央区,13102,日本橋,3-2-15,1F,1,,,1,,1,,11:00~14:00;,15:00~20:00;,11:00~14:00;,15:00~20:00;,11:00~14:00;,15:00~20:00;,12:00~14:00;,15:00~20:00;,11:00~14:00;,23:00~20:00;,10:00~14:00;,,,,,0,日本橋3-2-15-1F
サルスクリニック日本橋日本橋2-8-1 東京日本橋タワーアネックスB1F,100051,サルスクリニック日本橋,東京都中央区日本橋2-8-1,139.7752488,35.68159556,103-0027,050-3851-0269,,1,1,1,,,中央区,13102,日本橋,2-8-1,東京日本橋タワーアネックスB1F,1,1,1,,1,1,,9:00~12:00;,12:00~21:00;,9:00~12:00;,12:00~21:00;,9:00~12:00;,12:00~21:00;,9:00~12:00;,12:00~21:00;,9:00~12:00;,12:00~21:00;,9:00~12:00;,12:00~17:00;,9:00~12:00;,12:00~17:00;,,1,日本橋2-8-1 東京日本橋タワーアネックスB1F
八重洲ヤヨイクリニック八重洲1-9-13,100052,八重洲ヤヨイクリニック,東京都中央区八重洲1-9-13,139.7697113,35.68042327,103-0028,03-5204-0841,,1,1,1,1,,中央区,13102,八重洲,1-9-13,,1,,1,1,,,,,15:00~17:00;,,15:00~17:00;,,,,15:00~17:00;,,15:00~17:00;,,,,,,0,八重洲1-9-13
医療法人社団三和会中央診療所八丁堀3丁目20番5号S-GATE八丁堀2階,100053,医療法人社団三和会中央診療所,東京都中央区八丁堀3丁目20番5号,139.7768595,35.67510445,104-0032,03-3551-7522,,1,1,1,,,中央区,13102,八丁堀,3丁目20番5号,S-GATE八丁堀2階,1,,1,1,,1,,9:00~12:00;,14:00~17:00;,9:00~12:00;,14:00~17:00;,9:00~12:00;,14:00~17:00;,9:00~12:00;,14:00~17:00;,9:00~12:00;,14:00~17:00;,,,,,,0,八丁堀3丁目20番5号S-GATE八丁堀2階
高橋医院八丁堀3-26-8 高橋ビル1階,100054,高橋医院,東京都中央区八丁堀3-26-8,139.7788184,35.67475048,104-0032,03-3551-5955,,1,1,1,,,中央区,13102,八丁堀,3-26-8,高橋ビル1階,1,,,,,1,,12:00~13:00;,,12:00~13:00;,18:00~19:00;,12:00~13:00;,18:00~19:00;,12:00~13:00;,18:00~19:00;,,18:00~19:00;,,,,,英語,,八丁堀3-26-8 高橋ビル1階
八丁堀３丁目クリニック八丁堀3-2-5 八丁堀医療ビル２階,100055,八丁堀３丁目クリニック,東京都中央区八丁堀3-2-5,139.7732916,35.67504146,104-0032,03-6222-2772,,1,1,1,,,中央区,13102,八丁堀,3-2-5,八丁堀医療ビル２階,1,,,,,1,,,15:00~17:00;,,15:00~17:00;,,15:00~17:00;,11:00~12:00;,,,15:00~17:00;,12:00~13:00;,,,,,,八丁堀3-2-5 八丁堀医療ビル２階
医療法人社団 恒雅会 吉井医院新富1-5-14,100056,医療法人社団 恒雅会 吉井医院,東京都中央区新富1-5-14,139.772913,35.67258686,104-0041,03-3551-2032,,1,1,1,,,中央区,13102,新富,1-5-14,,1,,1,,1,1,,11:30~12:00;,15:45~16:30;,11:30~12:00;,15:45~16:30;,11:30~12:00;,15:45~16:30;,,,11:30~12:00;,15:45~16:30;,,,,,,0,新富1-5-14
新富げんかクリニック新富２-１４-５ 不二窯業株式会社２F・３F,100057,新富げんかクリニック,東京都中央区新富2-14-5,139.7748469,35.67066066,104-0041,web予約,http://www.shintomi-genka-cl.jp/,1,1,1,,,中央区,13102,新富,２-１４-５,不二窯業株式会社２F・３F,,,,,,,,9:00~13:00;,0:00~0:00;,9:00~13:00;,0:00~0:00;,9:00~13:00;,15:00~18:00;,9:00~13:00;,15:00~18:00;,9:00~13:00;,15:00~18:00;,9:00~13:00;,,,,,0,新富２-１４-５ 不二窯業株式会社２F・３F
EASE女性のクリニック東京都入船1-1-24　4F,100058,EASE女性のクリニック,東京都中央区東京都入船1-1-24,139.7719876,35.67057158,104-0042,web予約,https://medical.apokul.jp/web/63/reservations/add?kamok_id-158,1,1,1,1,1,中央区,13102,入船,1-1-24,4F,1,,1,1,,1,,11:00~13:00;,14:00~16:00;,11:00~13:00;,14:00~16:00;,11:00~13:00;,14:00~16:00;,,,11:00~13:00;,14:00~16:00;,,,,,,0,東京都入船1-1-24　4F
厚生診療所湊3-18-17マルキ榎本ビル,100059,厚生診療所,東京都中央区湊3-18-17,139.7806226,35.66947692,104-0043,03-3551-4690,,1,1,1,1,,中央区,13102,湊,3-18-17,マルキ榎本ビル,1,,1,1,,1,,12:00~13:00;,17:00~18:00;,12:00~13:00;,17:00~18:00;,12:00~13:00;,17:00~18:00;,,,12:00~13:00;,17:00~18:00;,12:00~13:00;,,,,,0,湊3-18-17マルキ榎本ビル
医療法人社団ひこばえ会築地ふたばクリニック築地1-9-9細川築地ビル6F,100060,医療法人社団ひこばえ会築地ふたばクリニック,東京都中央区築地1-9-9,139.7712643,35.66898654,104-0045,03-6226-5812,,1,1,1,,,中央区,13102,築地,1-9-9,細川築地ビル6F,1,,1,1,,1,,,,,,,,,15:00~19:00;,,,,,,,英語,0,築地1-9-9細川築地ビル6F
月島クリニック月島4-16-7-106,100063,月島クリニック,東京都中央区月島4-16-7,139.7808087,35.66009615,104-0052,03-3531-0082,,1,1,1,,,中央区,13102,月島,4-16-7,106,,,,,,,,9:00~12:00;,15:00~18:00;,9:00~12:00;,15:00~18:00;,9:00~12:00;,15:00~18:00;,9:00~12:00;,15:00~18:00;,9:00~12:00;,15:00~18:00;,9:00~11:00;,,,,,0,月島4-16-7-106
医療法人社団小坂成育会 こども元気クリニック月島三丁目30番3号ベルウッドビル2階,100065,医療法人社団小坂成育会 こども元気クリニック,東京都中央区月島三丁目30番3号,139.7794642,35.66085752,104-0052,03-5547-1191,,1,1,1,1,,中央区,13102,月島,三丁目30番3号,ベルウッドビル2階,1,,1,1,1,1,,8:00~12:00;,15:00~19:00;,8:00~12:00;,15:00~19:00;,8:00~12:00;,15:00~19:00;,8:00~12:00;,15:00~19:00;,8:00~12:00;,15:00~19:00;,8:00~12:00;,12:00~13:00;,8:00~12:00;,12:00~13:00;,英語,1,月島三丁目30番3号ベルウッドビル2階
月島キャピタルクリニック月島1-5-2-203,100066,月島キャピタルクリニック,東京都中央区月島1-5-2,139.7835549,35.66411095,104-0052,03-3533-8981,,1,1,1,,,中央区,13102,月島,1-5-2,203,,,1,1,1,1,,,13:00~15:00;,,13:00~15:00;,,13:00~15:00;,,13:00~15:00;,,13:00~15:00;,,17:00~18:00;,,,,,月島1-5-2-203
晴海3丁目クリニック晴海， 3-10-1 1F,100067,晴海3丁目クリニック,東京都中央区晴海3-10-1,139.7792146,35.65405552,104-0053,03-3536-8633,,1,1,1,,,中央区,13102,晴海,3-10-1,1F,,,,,,,,,13:00~17:00;,,13:00~17:00;,,13:00~17:00;,,13:00~17:00;,,13:00~17:00;,,12:00~16:00;,,12:00~16:00;,,0,晴海， 3-10-1 1F
晴海トリトン 夢未来クリニック晴海1-8-16晴海トリトンスクエア3F,100069,晴海トリトン 夢未来クリニック,東京都中央区晴海1-8-16,139.7822458,35.65735074,104-0053,03-3536-1361,,1,1,1,1,,中央区,13102,晴海,1-8-16,晴海トリトンスクエア3F,1,,,1,1,1,,9:00~12:00;,16:00~18:00;,9:00~12:00;,16:00~18:00;,9:00~12:00;,16:00~18:00;,9:00~12:00;,16:00~18:00;,9:00~12:00;,16:00~18:00;,9:00~12:00;,14:00~15:00;,9:00~12:00;,14:00~15:00;,英語,1,晴海1-8-16晴海トリトンスクエア3F
勝どき二丁目クリニック勝どき2-9-14 勝どき二丁目富永ビル4F,100070,勝どき二丁目クリニック,東京都中央区勝どき2-9-14,139.7781098,35.65934982,104-0054,03-5560-0073,,1,1,,,,中央区,13102,勝どき,2-9-14, 勝どき二丁目富永ビル4F,,,1,1,,,,12:30~13:00;,14:00~14:30;,12:30~13:00;,14:00~14:30;,,,,,,14:00~14:30;,,,,,,0,勝どき2-9-14 勝どき二丁目富永ビル4F
医療法人社団リゾーム慶和会 ザ東京タワーズクリニック勝どき６-３-２-１０２,100071,医療法人社団リゾーム慶和会 ザ東京タワーズクリニック,東京都中央区勝どき6-3-2,139.773567,35.65566216,104-0054,03-3534-9002,,1,1,1,,,中央区,13102,勝どき,６-３-２,１０２,1,,1,1,1,1,,10:00~12:00;,15:00~17:00;,10:00~12:00;,15:00~17:00;,10:00~12:00;,15:00~17:00;,10:00~12:00;,15:00~17:00;,10:00~12:00;,15:00~17:00;,10:00~12:00;,,10:00~12:00;,,,0,勝どき６-３-２-１０２
医療法人社団知洋会 勝どき耳鼻咽喉科・内科クリニック勝どき4-2-13サンパレス辻野1階,100072,医療法人社団知洋会 勝どき耳鼻咽喉科・内科クリニック,東京都中央区勝どき4-2-13,139.7760648,35.6578661,104-0054,03-3533-4133,,1,1,1,,,中央区,13102,勝どき,4-2-13,サンパレス辻野1階,1,,1,1,,,,,13:00~15:00;,,13:00~15:00;,,,,13:00~15:00;,,13:00~15:00;,,,,,,0,勝どき4-2-13サンパレス辻野1階
勝どき駅前耳鼻咽喉科・頭頸部甲状腺クリニック勝どき３-５-５ AIP勝どき駅前ビル3階,100073,勝どき駅前耳鼻咽喉科・頭頸部甲状腺クリニック,東京都中央区勝どき3-5-5,139.7760356,35.65869985,104-0054,03-5859-0563,,1,1,1,1,1,中央区,13102,勝どき,３-５-５,AIP勝どき駅前ビル3階,,,1,1,1,,,,15:00~17:00;,,15:00~17:00;,,15:00~17:00;,,15:00~17:00;,,,,,,,英語,0,勝どき３-５-５ AIP勝どき駅前ビル3階
医療法人社団範慶会 白倉内科診療所銀座4-13-18 医療ビル1階,100074,医療法人社団範慶会 白倉内科診療所,東京都中央区銀座4-13-18,139.7688155,35.66957336,104-0061,03-3543-4361,,1,1,,,,中央区,13102,銀座,4-13-18,医療ビル1階,,,1,1,,,,,,,15:00~17:00;,,,,15:00~17:00;,,,,,,,,0,銀座4-13-18 医療ビル1階
銀座まいにちクリニック銀座4-13-11,100075,銀座まいにちクリニック,東京都中央区銀座4-13-11,139.7682471,35.6689264,104-0061,web予約,https://mainichiclinic.jp/reserve/1,1,1,,,,中央区,13102,銀座,4-13-11,,1,,,,1,1,,10:00~14:00;,16:00~19:00;,10:00~14:00;,16:00~19:00;,10:00~14:00;,16:00~19:00;,10:00~14:00;,16:00~19:00;,10:00~14:00;,16:00~19:00;,9:00~13:00;,14:00~18:00;,9:00~13:00;,14:00~18:00;,英語,1,銀座4-13-11
医療法人財団 百葉の会 銀座医院銀座4-12-15 歌舞伎座タワー16F,100076,医療法人財団 百葉の会 銀座医院,東京都中央区銀座4-12-15,139.7680739,35.6696428,104-0061,03-3542-2660,,1,1,1,,,中央区,13102,銀座,4-12-15,歌舞伎座タワー16F,1,,,,,1,,9:00~12:00;,15:00~17:00;,9:00~12:00;,15:00~17:00;,9:00~12:00;,15:00~17:00;,9:00~12:00;,15:00~17:00;,,,,,,,,0,銀座4-12-15 歌舞伎座タワー16F
Aiメディカルクリニック銀座銀座7-13-12サクセス銀座第7ビル11階,100077,Aiメディカルクリニック銀座,東京都中央区銀座7-13-12,139.7639501,35.6674612,104-0061,03-6260-6120,,1,1,1,,,中央区,13102,銀座,7-13-12,サクセス銀座第7ビル11階,1,,1,,,1,,10:00~13:00;,13:00~18:00;,10:00~13:00;,13:00~18:00;,10:00~13:00;,13:00~18:00;,10:00~13:00;,13:00~18:00;,10:00~13:00;,13:00~18:00;,10:00~13:00;,13:00~18:00;,,,,,銀座7-13-12サクセス銀座第7ビル11階
聖路加国際病院明石町9-1,100079,聖路加国際病院,東京都中央区明石町9-1,139.7772975,35.66730882,104-8560,03-3541-5151,"診療・検査についてhttps://hospital.luke.ac.jp/topinformation/covid-19_info.html#kensa
",1,1,1,1,1,中央区,13102,明石町,9-1,,,,,,,,,0:00~12:00;,12:00~24:00;,0:00~12:00;,12:00~24:00;,0:00~12:00;,12:00~24:00;,0:00~12:00;,12:00~24:00;,0:00~12:00;,12:00~24:00;,0:00~12:00;,12:00~24:00;,0:00~12:00;,12:00~24:00;,英語,1,明石町9-1
人形町こどもクリニック日本橋蛎殻町1-9-1 アポテックビル１階,100080,人形町こどもクリニック,東京都中央区日本橋蛎殻町1-9-1,139.7815128,35.68304551,107-0062,web予約,https://tsubasa-cello-trimboli.com,1,1,1,2,,中央区,13102,日本橋蛎殻町,1-9-1,アポテックビル１階,1,,1,1,1,1,,9:00~12:00;,15:00~18:00;,9:00~12:00;,15:00~18:00;,,,9:00~12:00;,15:00~18:00;,9:00~12:00;,15:00~18:00;,9:00~12:00;,,,,なし,0,日本橋蛎殻町1-9-1 アポテックビル１階
虎の門耳鼻科クリニック虎ノ門1-1-25 虎ノ門一丁目ビル6F,100081,虎の門耳鼻科クリニック,東京都港区虎ﾉ門1-1-25,139.7498507,35.67048703,105-0001,03-3597-8286,,1,1,1,,,港区,13103,虎ノ門,1-1-25,虎ノ門一丁目ビル6F,1,,1,1,,1,,9:00~10:00;,13:00~16:00;,9:00~10:00;,13:00~16:00;,9:00~10:00;,13:00~16:00;,,13:00~16:00;,9:00~10:00;,,,,,,,0,虎ノ門1-1-25 虎ノ門一丁目ビル6F
アイビークリニック虎ノ門虎ノ門1-8-8,100082,アイビークリニック虎ノ門,東京都港区虎ﾉ門1-8-8,139.7510821,35.66909228,105-0001,03-5501-1511,,1,1,1,,,港区,13103,虎ノ門,1-8-8,,1,,1,,1,1,,10:00~13:00;,15:00~17:30;,10:00~13:00;,15:00~17:30;,10:00~13:00;,15:00~17:30;,10:00~13:00;,15:00~17:30;,10:00~13:00;,15:00~17:30;,,,,,,0,虎ノ門1-8-8
医療法人社団 彩珠会 虎ノ門とうまクリニック虎ノ門1-1-16 虎ノ門中央ビル4F,100083,医療法人社団 彩珠会 虎ノ門とうまクリニック,東京都港区虎ﾉ門1-1-16,139.7512101,35.67003084,105-0001,03-3502-4080,,1,1,,,,港区,13103,虎ノ門,1-1-16,虎ノ門中央ビル4F,1,,1,,1,1,,,18:00~19:00;,,18:00~19:00;,,18:00~19:00;,,18:00~19:00;,,18:00~19:00;,,,,,英語,0,虎ノ門1-1-16 虎ノ門中央ビル4F
虎ノ門中村クリニック虎ノ門3-10-4虎ノ門ガーデン103,100084,虎ノ門中村クリニック,東京都港区虎ﾉ門3-10-4,139.7477547,35.66478268,105-0001,web予約,info@toranyc.com,1,1,,1,1,港区,13103,虎ノ門,3-10-4,虎ノ門ガーデン103,1,,1,,1,1,,9:00~13:00;,15:00~20:00;,9:00~13:00;,15:00~20:00;,0:00,,9:00~12:00;,16:00~20:00;,9:00~13:00;,15:00~20:00;,0:00,,10:00~13:00;,13:00~19:00;,英語、中国語,1,虎ノ門3-10-4虎ノ門ガーデン103
日比谷クリニック虎ノ門1-1-20虎ノ門実業会館5階,100085,日比谷クリニック,東京都港区虎ﾉ門1-1-20,139.7506862,35.67024647,105-0001,03-3508-2508,,1,1,1,,,港区,13103,虎ノ門,1-1-20,虎ノ門実業会館5階,1,,,,,1,,8:00~12:00;,14:00~18:00;,8:00~12:00;,14:00~18:00;,0:00,,8:00~12:00;,14:00~18:00;,8:00~12:00;,14:00~18:00;,9:00~12:00;,,0:00,,,0,虎ノ門1-1-20虎ノ門実業会館5階
新橋-虎ノ門内視鏡クリニック西新橋1-17-8　須田ビル1F,100086,新橋-虎ノ門内視鏡クリニック,東京都港区西新橋1-17-8,139.7537108,35.66725396,105-0003,03-6205-4106,,1,1,,,,港区,13103,西新橋,1-17-8,須田ビル1F,1,,,,1,,,,16:00~17:00;,,16:00~17:00;,,16:00~17:00;,,16:00~17:00;,,,,,,,特になし,0,西新橋1-17-8　須田ビル1F
日比谷川畑診療室西新橋1-3-1西新橋スクエア３F,100087,日比谷川畑診療室,東京都港区西新橋1-3-1,139.7545059,35.66914244,105-0003,03-3502-5711,,1,1,,,,港区,13103,西新橋,1-3-1,西新橋スクエア３F,1,,1,,1,1,,,18:30~19:00;,,,,18:30~19:30;,,,,18:30~19:00;,,,,,,0,西新橋1-3-1西新橋スクエア３F
今井内科医院新橋5丁目7番地12号 丸石新橋ビル2階,100088,今井内科医院,東京都港区新橋5丁目7番地12号,139.75445,35.66367862,105-0004,03-3432-2166,受診前に必ずお電話下さい。,1,1,1,,,港区,13103,新橋,5丁目7番地12号,丸石新橋ビル2階,1,,1,1,1,1,,9:30~13:00;,14:00~17:00;,9:30~13:00;,14:00~17:00;,9:30~13:00;,,9:30~13:00;,14:00~17:00;,9:30~13:00;,14:00~17:00;,9:30~13:30;,,,,,0,新橋5丁目7番地12号 丸石新橋ビル2階
ニュー新橋クリニック新橋2-16-1ニュー新橋ビル4F,100089,ニュー新橋クリニック,東京都港区新橋2-16-1,139.7573578,35.66642306,105-0004,03-3580-6775,,1,1,1,,,港区,13103,新橋,2-16-1,ニュー新橋ビル4F,1,,1,,1,1,,9:00~12:30;,15:00~19:30;,9:00~12:30;,15:00~19:30;,9:00~12:30;,15:00~19:30;,9:00~12:30;,15:00~19:30;,9:00~12:30;,15:00~19:30;,9:00~12:30;,15:00~17:30;,,,,0,新橋2-16-1ニュー新橋ビル4F
医療法人社団 新青会 新橋青木クリニック新橋3-23-4 青木ビル2F,100090,医療法人社団 新青会 新橋青木クリニック,東京都港区新橋3-23-4,139.7579565,35.66463809,105-0004,03-3432-0381,,1,1,1,,,港区,13103,新橋,3-23-4,青木ビル2F,1,,1,1,1,1,,9:00~13:00;,14:00~18:00;,9:00~13:00;,14:00~18:00;,9:00~13:00;,14:00~18:00;,9:00~13:00;,14:00~18:00;,9:00~13:00;,14:00~18:00;,9:00~13:00;,,,,英語,0,新橋3-23-4 青木ビル2F
医療法人財団南葛勤医協 芝診療所新橋6-19-21,100091,医療法人財団南葛勤医協 芝診療所,東京都港区新橋6-19-21,139.7532938,35.66105248,105-0004,03-3432-8701,,1,1,1,,,港区,13103,新橋,6-19-21,,1,,,,,1,1,9:00~12:00;,14:00~16:00;,9:00~12:00;,14:00~16:00;,9:00~12:00;,14:00~16:00;,9:00~12:00;,14:00~16:00;,9:00~12:00;,14:00~16:00;,,,,,,0,新橋6-19-21
新橋日比谷通りクリニック新橋２丁目12-16 明和ビル3階,100092,新橋日比谷通りクリニック,東京都港区新橋2丁目12-16,139.754746,35.66744104,105-0004,03-3595-4976,,1,1,1,,1,港区,13103,新橋,２丁目12-16,明和ビル3階,1,1,1,1,1,1,,10:00~13:00;,16:00~19:00;,10:00~13:00;,16:00~19:00;,10:00~13:00;,16:00~19:00;,10:00~13:00;,16:00~19:00;,10:00~13:00;,16:00~19:00;,10:00~13:00;,16:00~19:00;,,,英語,0,新橋２丁目12-16 明和ビル3階
インターナショナルヘルスケアクリニック新橋2-10-5 末吉ビル3F,100093,インターナショナルヘルスケアクリニック,東京都港区新橋2-10-5,139.7556348,35.66696214,105-0004,03-3501-1330,,1,1,1,,,港区,13103,新橋,2-10-5,末吉ビル3F,1,,1,1,1,1,,,12:00~16:00;,,12:00~16:00;,,12:00~16:00;,,12:00~16:00;,,12:00~16:00;,,,,,英語,0,新橋2-10-5 末吉ビル3F
医療法人社団CFS クリニックフォア新橋新橋1-4-5　ヒューリックG10ビル 9F,100094,医療法人社団CFS クリニックフォア新橋,東京都港区新橋1-4-5,139.7590734,35.66794802,105-0004,web予約,https://reservation.clinicfor.life/c/shimbashi,1,1,1,,,港区,13103,新橋,1-4-5,ヒューリックG10ビル 9F,1,1,,1,1,1,,9:30~14:30;,16:00~21:00;,9:30~14:30;,16:00~21:00;,9:30~14:30;,16:00~21:00;,9:30~14:30;,16:00~21:00;,9:30~14:30;,16:00~21:00;,9:00~13:00;,14:00~21:00;,9:00~13:00;,14:00~21:00;,英語、中国語,1,新橋1-4-5　ヒューリックG10ビル 9F
新橋駅前まめクリニック新橋2-16-1ニュー新橋ビル323,100095,新橋駅前まめクリニック,東京都港区新橋2-16-1,139.7573855,35.66642306,105-0004,web予約,https://reza.3bees.com/p/8bdd/online_reservations,1,1,1,,,港区,13103,新橋,2-16-1,ニュー新橋ビル323,1,,,,,1,,10:00~13:00;,18:00~22:00;,10:00~13:00;,18:00~22:00;,10:00~13:00;,18:00~22:00;,10:00~13:00;,18:00~22:00;,10:00~13:00;,18:00~22:00;,10:00~13:00;,13:00~18:00;,10:00~12:00;,13:00~18:00;,,1,新橋2-16-1ニュー新橋ビル323
藏本内科クリニック芝公園1-7-15池田ビル1階,100096,藏本内科クリニック,東京都港区芝公園1-7-15,139.7523548,35.65749457,105-0011,03-5733-3355,,1,1,,,,港区,13103,芝公園,1-7-15,池田ビル1階,1,,1,,1,1,,10:00~11:00;,,11:00~12:00;,16:00~17:00;,11:00~12:00;,16:00~17:00;,11:00~12:00;,16:00~17:00;,11:00~12:00;,16:00~17:00;,,,,,,0,芝公園1-7-15池田ビル1階
おかだスマイルクリニック浜松町2-3-1日本生命浜松町クレアタワー4F,100097,おかだスマイルクリニック,東京都港区浜松町2-3-1,139.7555776,35.65562327,105-0013,03-6809-1725,,1,1,1,1,1,港区,13103,浜松町,2-3-1,日本生命浜松町クレアタワー4F,1,,1,1,1,1,,9:30~12:00;,12:00~19:00;,9:30~12:00;,12:00~19:00;,9:30~12:00;,12:00~19:00;,9:30~12:00;,12:00~19:00;,9:30~12:00;,12:00~19:00;,9:30~12:00;,12:00~13:00;,,,,0,浜松町2-3-1日本生命浜松町クレアタワー4F
東京ベイクリニック海岸１-１６-１ ニューピア竹芝サウスタワー４階,100098,東京ベイクリニック,東京都港区海岸1-16-1,139.7624075,35.653707,105-0022,03-5404-3842,,1,1,1,,,港区,13103,海岸,１-１６-１,ニューピア竹芝サウスタワー４階,1,,1,1,1,1,,,16:00~17:00;,,16:00~17:00;,,,,16:00~17:00;,,16:00~17:00;,,,,,,0,海岸１-１６-１ ニューピア竹芝サウスタワー４階
竹芝水辺のクリニック海岸1-10-30 アトレ竹芝タワー棟3F,100099,竹芝水辺のクリニック,東京都港区海岸1-10-30,139.762894,35.6560686,105-0022,03-3432-3232,,1,1,1,,,港区,13103,海岸,1-10-30,アトレ竹芝タワー棟3F,1,,1,1,1,1,1,10:00~13:30;,15:30~18:00;,10:00~13:30;,15:30~18:00;,10:00~13:30;,15:30~18:00;,11:00~13:30;,16:00~18:00;,11:00~13:30;,16:00~18:00;,,,,,英語,0,海岸1-10-30 アトレ竹芝タワー棟3F
ウスイ内科クリニック西麻布3-2-21 センチュリオン六本木タワー５階,100100,ウスイ内科クリニック,東京都港区西麻布3-2-21,139.7273333,35.6585641,106-0031,03-3401-0271,,1,1,1,,,港区,13103,西麻布,3-2-21,センチュリオン六本木タワー５階,1,,1,1,1,1,,9:00~13:00;,14:00~17:00;,9:00~13:00;,14:00~17:00;,9:00~13:00;,14:00~17:00;,9:00~13:00;,14:00~17:00;,9:00~13:00;,14:00~17:00;,,,,,英語,0,西麻布3-2-21 センチュリオン六本木タワー５階
西麻布クリニック西麻布3ー20ー6 杉友ビル1階,100101,西麻布クリニック,東京都港区西麻布3-20-6,139.7259967,35.66013571,106-0031,03-3403-6696,,1,1,,,,港区,13103,西麻布,3-20-6,杉友ビル1階,,,1,1,,,,9:00~12:00;,15:00~16:00;,9:00~12:00;,15:00~16:00;,9:00~12:00;,15:00~16:00;,9:00~12:00;,15:00~16:00;,9:00~12:00;,15:00~16:00;,,,,,無し,0,西麻布3ー20ー6 杉友ビル1階
西麻布インターナショナルクリニック西麻布3-17-20LY西麻布2階,100102,西麻布インターナショナルクリニック,東京都港区西麻布3-17-20,139.7242506,35.65814333,106-0031,03-6447-5966,,1,1,,1,1,港区,13103,西麻布,3-17-20,LY西麻布2階,1,,1,1,,1,,9:00~12:00;,17:00~19:00;,9:00~12:00;,17:00~19:00;,9:00~12:00;,17:00~19:00;,9:00~12:00;,17:00~19:00;,9:00~12:00;,17:00~19:00;,9:00~12:00;,,9:00~12:00;,,英語,0,西麻布3-17-20LY西麻布2階
あべ耳鼻咽喉科クリニック六本木6-1-20六本木電気ビル2階,100103,あべ耳鼻咽喉科クリニック,東京都港区六本木6-1-20,139.7313078,35.66231685,106-0032,03-3401-3387,必ずお電話ください,1,1,,,,港区,13103,六本木,6-1-20,六本木電気ビル2階,1,,1,1,,1,,12:00~13:00;,18:00~19:00;,12:00~13:00;,18:00~19:00;,,,12:00~13:00;,18:00~19:00;,12:00~13:00;,18:00~19:00;,13:00~14:00;,,,,なし,0,六本木6-1-20六本木電気ビル2階
ジェネラルクリニック六本木6-1-8 グリーンビル8階,100104,ジェネラルクリニック,東京都港区六本木6-1-8,139.7321982,35.66254354,106-0032,03-3401-0333,,1,1,1,1,1,港区,13103,六本木,6-1-8,グリーンビル8階,1,,1,1,1,1,,10:00~13:00;,15:00~19:00;,10:00~13:00;,15:00~19:00;,10:00~13:00;,15:00~19:00;,10:00~13:00;,15:00~19:00;,10:00~13:00;,15:00~19:00;,10:00~13:00;,14:00~17:00;,11:00~12:00;,12:00~19:00;,英語,0,六本木6-1-8 グリーンビル8階
医療法人財団額田会 中村クリニック六本木4-5-3,100105,医療法人財団額田会 中村クリニック,東京都港区六本木4-5-3,139.7328783,35.66486394,106-0032,03-3401-8003,,1,1,1,,,港区,13103,六本木,4-5-3,,1,,1,1,,1,,,13:00~15:00;,,13:00~15:00;,,13:00~15:00;,,,,13:00~15:00;,,13:00~14:00;,,,,0,六本木4-5-3
六本木ファーストクリニック六本木1-7-27 全特六本木ビルＥＡＳＴ1階,100106,六本木ファーストクリニック,東京都港区六本木1-7-27,139.7391978,35.66384546,106-0032,03-5574-7788,,1,1,1,1,,港区,13103,六本木,1-7-27,全特六本木ビルＥＡＳＴ1階,1,,1,,1,1,,,,,,,12:00~13:00;,,,,,,,,,,0,六本木1-7-27 全特六本木ビルＥＡＳＴ1階
岸本クリニック六本木5-16-4-4F,100107,岸本クリニック,東京都港区六本木5-16-4,139.7356906,35.66173829,106-0032,03-3589-2112,,1,1,1,,,港区,13103,六本木,5-16-4,4F,1,,,,,1,,9:00~11:00;,14:00~16:00;,9:00~11:00;,14:00~16:00;,9:00~11:00;,14:00~16:00;,9:00~11:00;,14:00~16:00;,9:00~11:00;,14:00~16:00;,,,,,英語,,六本木5-16-4-4F
六本木HATクリニック六本木3-1-1六本木ティーキューブ2F,100108,六本木HATクリニック,東京都港区六本木3-1-1,139.7382225,35.66554275,106-0032,03-3584-1132,,1,1,1,,,港区,13103,六本木,3-1-1,六本木ティーキューブ2F,1,,1,1,,1,,10:00~13:00;,15:00~19:00;,10:00~13:00;,15:00~19:00;,10:00~13:00;,16:00~19:00;,10:00~13:00;,15:00~19:00;,10:00~13:00;,15:00~19:00;,,,,,英語,0,六本木3-1-1六本木ティーキューブ2F
モーニングクリニック六本木内科耳鼻咽喉科OR六本木6ー1ー8六本木グリーンビル７階,100109,モーニングクリニック六本木内科耳鼻咽喉科OR,東京都港区六本木6ｰ1ｰ8,139.732226,35.66254354,106-0032,03-5860-6935,,1,1,1,,,港区,13103,六本木,6ー1ー8,六本木グリーンビル７階,1,,1,1,,1,,9:00~10:00;,14:00~17:00;,,14:00~17:00;,9:00~10:00;,14:00~17:00;,9:00~12:00;,14:00~17:00;,9:00~12:00;,14:00~17:00;,9:00~12:00;,,,,英語,,六本木6ー1ー8六本木グリーンビル７階
サニーガーデンこどもクリニック麻布十番2-16-4 プラスワンビル3階,100110,サニーガーデンこどもクリニック,東京都港区麻布十番2-16-4,139.7355908,35.65419718,106-0045,03-6722-6623,,1,1,,1,,港区,13103,麻布十番,2-16-4,プラスワンビル3階,1,,1,1,,1,,12:00~12:30;,17:00~18:00;,12:00~12:30;,17:00~18:00;,12:00~12:30;,17:00~18:00;,12:00~12:30;,17:00~18:00;,12:00~12:30;,17:00~18:00;,,,,,,0,麻布十番2-16-4 プラスワンビル3階
大森真帆麻布十番クリニック麻布十番1-5-9高橋ビル2階,100111,大森真帆麻布十番クリニック,東京都港区麻布十番1-5-9,139.7334239,35.65696559,106-0045,03-6455-4317,,1,1,1,1,1,港区,13103,麻布十番,1-5-9,高橋ビル2階,1,,1,1,1,1,,,15:00~19:00;,10:00~13:00;,15:00~19:00;,10:00~13:00;,15:00~19:00;,10:00~13:00;,15:00~19:00;,10:00~13:00;,14:00~17:00;,10:00~13:00;,,,,英語,0,麻布十番1-5-9高橋ビル2階
南麻布医院南麻布1-12-１,100112,南麻布医院,東京都港区南麻布1-12-1,139.7344667,35.65025667,106-0047,03-3452-3211,,1,1,,,,港区,13103,南麻布,1-12-１,,1,,1,,1,1,,,13:00~14:00;,,13:00~14:00;,,13:00~14:00;,,,,13:00~14:00;,,,,,韓国語,0,南麻布1-12-１
フローイーストクリニック南麻布５-１０-２４ 第二佐野ビル７階,100113,フローイーストクリニック,東京都港区南麻布5-10-24,139.7224007,35.65256606,106-0047,web予約,http://floweast-clinic.com,1,1,,1,,港区,13103,南麻布,５-１０-２４,第二佐野ビル７階,,,,,,,,8:00~11:00;,15:00~19:00;,8:00~12:00;,,8:00~11:00;,15:00~19:00;,8:00~11:00;,15:00~19:00;,8:00~11:00;,15:00~19:00;,8:00~12:00;,,,,英語,0,南麻布５-１０-２４ 第二佐野ビル７階
南青山内科クリニック南青山７丁目８-８ロイヤルハイツ１０１,100114,南青山内科クリニック,東京都港区南青山7丁目8-8,139.7174448,35.65897469,106-0072,03-6805-1836,,1,1,1,1,1,港区,13103,南青山,７丁目８-８,ロイヤルハイツ１０１,1,,1,1,1,1,,10:00~12:00;,15:00~17:00;,10:00~12:00;,15:00~17:00;,,,10:00~12:00;,15:00~17:00;,,,10:00~12:00;,,10:00~12:00;,,英語,0,南青山７丁目８-８ロイヤルハイツ１０１
赤坂一ツ木通りクリニック赤坂3-15-9 ACRビル3F,100115,赤坂一ツ木通りクリニック,東京都港区赤坂3-15-9,139.7366415,35.67435142,107-0052,03-5544-8205,,1,1,,,,港区,13103,赤坂,3-15-9,ACRビル3F,,,,,,,,8:30~11:30;,13:30~16:30;,8:30~11:30;,13:30~16:30;,8:30~11:30;,13:30~16:30;,8:30~11:30;,13:30~16:30;,8:30~11:30;,13:30~16:30;,,,,,英語,0,赤坂3-15-9 ACRビル3F
医療法人社団 成章会 岩沢医院赤坂３-１-１６ BIビル２F,100116,医療法人社団 成章会 岩沢医院,東京都港区赤坂3-1-16,139.7365173,35.67745733,107-0052,03-3583-6155,,1,1,1,1,1,港区,13103,赤坂,３-１-１６,BIビル２F,1,,1,1,,1,,9:00~14:00;,15:00~18:00;,9:00~14:00;,15:00~18:00;,9:00~14:00;,,9:00~14:00;,15:00~18:00;,9:00~14:00;,,,,,,なし,0,赤坂３-１-１６ BIビル２F
医療法人財団順和会山王病院赤坂８-１０-１６,100117,医療法人財団順和会山王病院,東京都港区赤坂8-10-16,139.7272562,35.66968308,107-0052,03-3402-3151,,1,1,1,,,港区,13103,赤坂,８-１０-１６,,1,,,1,,,,9:00~12:00;,13:00~17:00;,9:00~12:00;,13:00~17:00;,9:00~12:00;,13:00~17:00;,9:00~12:00;,13:00~17:00;,9:00~12:00;,13:00~17:00;,9:00~12:00;,13:00~17:00;,,,,0,赤坂８-１０-１６
清水クリニック赤坂４-４-１１ 赤坂丹後町ビル1階,100118,清水クリニック,東京都港区赤坂４-４-１１ 赤坂丹後町ビル1階,139.7343772,35.67360522,107-0052,03-6441-0358,,1,1,1,,,港区,13103,赤坂,４-４-１１,赤坂丹後町ビル1階,1,,1,1,1,1,,12:00~14:00;,17:00~19:00;,12:00~14:00;,17:00~19:00;,12:00~14:00;,17:00~19:00;,12:00~14:00;,17:00~19:00;,12:00~14:00;,17:00~19:00;,,,,,,0,赤坂４-４-１１ 赤坂丹後町ビル1階
赤坂インターナショナルクリニック赤坂5-5-10赤坂大高ビル2階,100119,赤坂インターナショナルクリニック,東京都港区赤坂5-5-10,139.7341398,35.67062776,107-0052,03-6277-6337,https://ssl.fdoc.jp/reserve/subjectlist/index/cid/s1054027?SITE_CODE-hp,1,1,1,1,1,港区,13103,赤坂,5-5-10,赤坂大高ビル2階,1,,,1,,,,,,10:00~12:00;,,10:00~12:00;,13:30~17:00;,10:00~12:00;,13:30~19:00;,10:00~12:00;,13:30~17:00;,10:00~12:00;,13:00~17:00;,,,英語,0,赤坂5-5-10赤坂大高ビル2階
赤坂ファミリークリニック赤坂2-15-15， 赤坂プラザビル3階,100120,赤坂ファミリークリニック,東京都港区赤坂2-15-15,139.7379721,35.67161808,107-0052,web予約,www.afc.tokyo,1,1,1,1,1,港区,13103,赤坂,2-15-15,赤坂プラザビル3階,1,,1,1,1,1,,,,10:00~12:00;,15:00~17:00;,10:00~12:00;,15:00~17:00;,,14:00~17:00;,10:00~12:00;,15:00~17:00;,10:00~12:00;,,,,英語,0,赤坂2-15-15， 赤坂プラザビル3階
医療法人社団友幸会おりつこどもクリニック北青山3-5-4　青山高野ビル5階,100121,医療法人社団友幸会おりつこどもクリニック,東京都港区北青山3-5-4,139.7142662,35.66750454,107-0061,03-6721-1188,,1,1,1,1,1,港区,13103,北青山,3-5-4,青山高野ビル5階,1,,1,1,1,1,,8:30~12:00;,15:00~18:30;,8:30~12:00;,15:00~18:30;,,,8:30~12:00;,15:00~18:30;,8:30~12:00;,15:00~18:30;,8:30~12:00;,,,,,0,北青山3-5-4　青山高野ビル5階
医療法人社団ミネルバ　ミネルバクリニック北青山2-7-25神宮外苑ビル1号館2階,100122,医療法人社団ミネルバ　ミネルバクリニック,東京都港区北青山2-7-25,139.7172638,35.67131633,107-0061,03-3478-3768,,1,1,1,,,港区,13103,北青山,2-7-25,神宮外苑ビル1号館2階,1,,1,1,1,,,,18:00~24:00;,,18:00~24:00;,,18:00~24:00;,,18:00~24:00;,,18:00~24:00;,,18:00~24:00;,,18:00~24:00;,,1,北青山2-7-25神宮外苑ビル1号館2階
医療法人社団松柏会 藤田クリニック南青山2-22-19 アドバンテック南青山ビル7階,100123,医療法人社団松柏会 藤田クリニック,東京都港区南青山2-22-19,139.7195549,35.67085336,107-0062,03-5772-7381,,1,1,1,,,港区,13103,南青山,2-22-19,アドバンテック南青山ビル7階,1,,1,1,1,1,,12:00~13:00;,14:00~15:00;,12:00~13:00;,14:00~15:00;,12:00~13:00;,14:00~15:00;,12:00~13:00;,14:00~15:00;,12:00~13:00;,14:00~15:00;,12:00~13:00;,,,,,0,南青山2-22-19 アドバンテック南青山ビル7階
"青山明石クリニック南青山3-14-24
ピロティ青山　104号室",100124,青山明石クリニック,東京都港区南青山3-14-24,139.7145608,35.66528928,107-0062,03‐6447‐4525,,1,1,1,,,港区,13103,南青山,3-14-24,ピロティ青山　104号室,1,1,1,1,1,1,1,,,,,,,,,,,,,,,英語,0,"南青山3-14-24
ピロティ青山　104号室"
にじいろファミリークリニック南青山1-23-14グリーン南青山1階,100125,にじいろファミリークリニック,東京都港区南青山1-23-14,139.7252842,35.66666526,107-0062,03-3405-2116,,1,1,1,1,,港区,13103,南青山,1-23-14,グリーン南青山1階,1,,1,1,1,1,,,15:00~19:00;,,15:00~19:00;,,15:00~19:00;,,15:00~19:00;,,15:00~19:00;,,15:00~19:00;,,,,0,南青山1-23-14グリーン南青山1階
赤坂おだやかクリニック赤坂5-3-1 赤坂Bizタワーアネックス2階,100127,赤坂おだやかクリニック,東京都港区赤坂5-3-1,139.7364384,35.67318906,107-6302,web予約,https://ssl.fdoc.jp/reserve/subjectlist/index/cid/x3563894,1,1,1,,1,港区,13103,赤坂,5-3-1,赤坂Bizタワーアネックス2階,1,,,,,1,,12:00~14:00;,17:00~19:00;,12:00~14:00;,17:00~19:00;,12:00~14:00;,17:00~19:00;,12:00~14:00;,17:00~19:00;,12:00~14:00;,17:00~19:00;,,,,,英語,0,赤坂5-3-1 赤坂Bizタワーアネックス2階
山王メディカルセンター赤坂8-5-35,100128,山王メディカルセンター,東京都港区赤坂8-5-35,139.7263167,35.67233574,107-8322,03-3402-5581,,1,1,,,,港区,13103,赤坂,8-5-35,,1,,,,1,,,9:00~12:00;,13:00~17:00;,9:00~12:00;,13:00~17:00;,9:00~12:00;,13:00~17:00;,9:00~12:00;,13:00~17:00;,9:00~12:00;,13:00~17:00;,9:00~12:00;,13:00~17:00;,,,,0,赤坂8-5-35
医療法人財団順和会 赤坂山王メディカルセンター赤坂四丁目1番26号 国際医療福祉大学 赤坂キャンパスW棟内４階・５階・６階・７階・８階,100129,医療法人財団順和会 赤坂山王メディカルセンター,東京都港区赤坂四丁目1番26号,139.7347016,35.6763969,107-8402,03-6230-3701,,1,1,,,,港区,13103,赤坂,四丁目1番26号,国際医療福祉大学 赤坂キャンパスW棟内４階・５階・６階・７階・８階,,,,,,,,9:00~12:00;,13:00~17:00;,9:00~12:00;,13:00~17:00;,9:00~12:00;,13:00~17:00;,9:00~12:00;,13:00~17:00;,9:00~12:00;,13:00~17:00;,9:00~13:00;,,,,不可,,赤坂四丁目1番26号 国際医療福祉大学 赤坂キャンパスW棟内４階・５階・６階・７階・８階
"医療法人社団重宣会
鈴木胃腸消化器クリニック芝5-27-1",100130,"医療法人社団重宣会
鈴木胃腸消化器クリニック",東京都港区芝5-27-1,139.7457018,35.64711581,108-0014,0334556121,,1,1,,,,港区,13103,芝,5-27-1,,1,1,1,,1,1,,9:00~13:00;,14:00~18:00;,9:00~13:00;,14:00~18:00;,9:00~13:00;,14:00~18:00;,9:00~13:00;,14:00~18:00;,9:00~13:00;,14:00~18:00;,9:00~13:00;,,,,,0,芝5-27-1
菅沼三田診療所芝５-１９-５ＪＰ田町１Ｆ,100131,菅沼三田診療所,東京都港区芝5-19-5,139.7478834,35.64761855,108-0014,03-3452-1748,,1,1,1,,,港区,13103,芝,５-１９-５,ＪＰ田町１Ｆ,1,,1,1,1,1,,,13:00;,,13:00;,,,,13:00;,,13:00;,,,,,,0,芝５-１９-５ＪＰ田町１Ｆ
医療法人社団 千秋双葉会 東京シティクリニック三田芝4-5-8， 池藤ビル２階,100132,医療法人社団 千秋双葉会 東京シティクリニック三田,東京都港区芝4-5-8,139.751284,35.64879986,108-0014,03-5439-5566,,1,1,,2,,港区,13103,芝,4-5-8, 池藤ビル２階,1,,1,,1,1,,9:00~11:00;,,9:00~11:00;,,9:00~11:00;,,9:00~11:00;,,9:00~11:00;,,9:00~11:00;,,,,英語,0,芝4-5-8， 池藤ビル２階
新田町ビル診療所芝5-34-6-2F,100133,新田町ビル診療所,東京都港区芝5-34-6,139.7467465,35.64591313,108-0014,03-3451-2619,,1,1,1,,1,港区,13103,芝,5-34-6,2F,1,,1,1,1,1,,11:00~13:00;,16:00~17:00;,11:00~13:00;,16:00~17:00;,11:00~13:00;,16:00~17:00;,,,11:00~13:00;,16:00~17:00;,11:00~12:00;,,,,,0,芝5-34-6-2F
有明みんなクリニック 田町芝浦院芝浦3-2-28 HTアジール芝浦1階,100134,有明みんなクリニック 田町芝浦院,東京都港区芝浦3-2-28,139.7506772,35.64474779,108-0023,web予約,https://ssc6.doctorqube.com/tamachishibaura/,1,1,1,,,港区,13103,芝浦,3-2-28,HTアジール芝浦1階,1,1,1,,1,1,,9:00~14:00;,15:00~21:00;,9:00~14:00;,15:00~21:00;,9:00~14:00;,16:00~20:00;,9:00~14:00;,16:00~20:00;,9:00~14:00;,15:00~21:00;,9:00~14:00;,15:00~17:00;,9:00~13:00;,,日本語、英語,1,芝浦3-2-28 HTアジール芝浦1階
クリニックフォア田町芝浦3-1-32 なぎさテラス4階,100135,クリニックフォア田町,東京都港区芝浦3-1-32,139.7485945,35.64484264,108-0023,web予約,https://reservation.clinicfor.life/c/tamachi_fever,1,1,1,,,港区,13103,芝浦,3-1-32,なぎさテラス4階,1,1,1,1,1,1,1,10:00~14:00;,16:00~21:00;,10:00~14:00;,16:00~21:00;,10:00~14:00;,16:00~21:00;,10:00~14:00;,16:00~21:00;,10:00~14:00;,16:00~21:00;,9:00~13:00;,14:00~18:00;,9:00~13:00;,14:00~18:00;,,1,芝浦3-1-32 なぎさテラス4階
クリニックばんびいに白金台3-16-13 ５F,100136,クリニックばんびいに,東京都港区白金台3-16-13,139.7237709,35.63660616,108-0071,03-3441-4150,,1,1,,2,,港区,13103,白金台,3-16-13,５F,1,,1,1,,,,9:00~11:00;,16:00~18:00;,9:00~11:00;,16:00~18:00;,9:00~11:00;,16:00~18:00;,9:00~11:00;,16:00~18:00;,9:00~11:00;,16:00~18:00;,9:00~11:00;,,,,,0,白金台3-16-13 ５F
もとやまクリニック白金1-8-9,100137,もとやまクリニック,東京都港区白金1-8-9,139.7316418,35.64592977,108-0072,03-3473-2866,,1,1,1,1,,港区,13103,白金,1-8-9,,1,,,1,,1,,12:30~13:30;,18:00~19:00;,12:30~13:30;,18:00~19:00;,12:30~13:30;,18:00~19:00;,12:30~13:30;,18:00~19:00;,12:30~13:00;,,12:30~13:00;,,,,,0,白金1-8-9
耳鼻咽喉科望月医院白金３-１０-１８,100138,耳鼻咽喉科望月医院,東京都港区白金3-10-18,139.730806,35.645014,108-0072,03-3442-3387,,1,1,1,,,港区,13103,白金,３-１０-１８,,1,,1,,,1,,11:00~12:00;,0:00,,0:00,11:00~12:00;,,11:00~12:00;,0:00,11:00~12:00;,0:00,,,,,,0,白金３-１０-１８
医療法人社団千和会 白金タワークリニック白金１-１７-１ 白金タワー１０６,100139,医療法人社団千和会 白金タワークリニック,東京都港区白金1-17-1,139.7334398,35.64463338,108-0072,03-5789-3882,,1,1,1,1,1,港区,13103,白金,１-１７-１,白金タワー１０６,1,,1,1,,1,,11:00~13:00;,17:00~18:00;,11:00~13:00;,17:00~18:00;,11:00~13:00;,,11:00~13:00;,17:00~18:00;,11:00~13:00;,17:00~18:00;,11:00~13:00;,,,,英語,0,白金１-１７-１ 白金タワー１０６
医療法人社団 健翠会 カピバラあかちゃんこどもクリニック白金一丁目26番4号 アイム白金高輪1階,100140,医療法人社団 健翠会 カピバラあかちゃんこどもクリニック,東京都港区白金一丁目26番4号,139.7335258,35.64404761,108-0072,03-6277-3008,,1,1,1,1,,港区,13103,白金,一丁目26番4号,アイム白金高輪1階,1,,,,,1,,9:00~12:00;,14:00~18:00;,9:00~12:00;,,9:00~12:00;,14:00~18:00;,9:00~12:00;,14:00~18:00;,9:00~12:00;,,9:00~12:00;,,,,英語,0,白金一丁目26番4号 アイム白金高輪1階
白金三光クリニック白金１-２５-３１ レジデンス白金１０２,100141,白金三光クリニック,東京都港区白金1-25-31,139.7315948,35.64445028,108-0072,03-6456-4350,,1,1,1,,,港区,13103,白金,１-２５-３１,レジデンス白金１０２,1,,1,1,,1,,11:00~13:00;,17:00~19:00;,11:00~13:00;,17:00~19:00;,11:00~13:00;,17:00~19:00;,11:00~13:00;,17:00~19:00;,11:00~13:00;,17:00~19:00;,11:00~12:30;,,,,,0,白金１-２５-３１ レジデンス白金１０２
敬和国際医院白金1-25-27布施ビル２階,100142,敬和国際医院,東京都港区白金1-25-27,139.731507,35.64398207,108-0072,03-6432-5070,,1,1,,,,港区,13103,白金,1-25-27,布施ビル２階,1,,1,,,1,,9:00~11:00;,14:00~19:00;,9:00~11:00;,14:00~19:00;,,,9:00~11:00;,14:00~19:00;,9:00~11:00;,14:00~19:00;,13:00~17:00;,,,,中国語 英語,0,白金1-25-27布施ビル２階
医療法人社団勝優会たまちホームクリニック三田3-1-4,100143,医療法人社団勝優会たまちホームクリニック,東京都港区三田3-1-4,139.7433284,35.64771092,108-0073,03-6435-2331,,1,1,1,,,港区,13103,三田,3-1-4,,1,,1,1,,1,,10:00~13:00;,16:00~19:00;,10:00~13:00;,16:00~19:00;,10:00~13:00;,16:00~19:00;,10:00~13:00;,16:00~19:00;,10:00~13:00;,16:00~19:00;,,,,,,0,三田3-1-4
高輪内科クリニック高輪1-16-4,100144,高輪内科クリニック,東京都港区高輪1-16-4,139.7336761,35.64006755,108-0074,03-3449-6748,,1,1,1,1,1,港区,13103,高輪,1-16-4,,1,,1,1,,1,,9:00~13:00;,16:00~19:00;,9:00~13:00;,16:00~19:00;,,,9:00~13:00;,16:00~19:00;,9:00~13:00;,16:00~19:00;,9:00~13:00;,,,,英語,0,高輪1-16-4
ぽれぽれクリニック高輪1-5-21ルート高輪ビル4階,100145,ぽれぽれクリニック,東京都港区高輪1-5-21,139.7375344,35.6409883,108-0074,03-5422-7626,,1,1,1,2,,港区,13103,高輪,1-5-21,ルート高輪ビル4階,1,,,1,,,,8:30~12:30;,,8:30~12:30;,,,,8:30~12:30;,,8:30~12:30;,,11:00~12:30;,,,,英語,0,高輪1-5-21ルート高輪ビル4階
品川ハートメディカルクリニック高輪2-15-11-105,100146,品川ハートメディカルクリニック,東京都港区高輪2-15-11,139.738948,35.63736627,108-0074,03-5422-8841,,1,1,1,,,港区,13103,高輪,2-15-11,105,,,1,1,,,,12:00~13:00;,18:00~19:00;,12:00~13:00;,18:00~19:00;,,,12:00~13:00;,18:00~19:00;,12:00~13:00;,18:00~19:00;,12:00~13:00;,,,,英語,0,高輪2-15-11-105
ワールドシティ益子クリニック港南4-6-7 キャピタルタワー3階,100147,ワールドシティ益子クリニック,東京都港区港南4-6-7,139.7506137,35.62760462,108-0075,web予約,https://a.inet489.jp/msk0331/yoyaku/login.cgi?recno-&birth-,1,1,1,1,1,港区,13103,港南,4-6-7,キャピタルタワー3階,1,,1,1,1,1,,9:00~12:00;,14:00~18:00;,9:00~12:00;,14:00~18:00;,9:00~12:00;,14:00~18:00;,9:00~12:00;,14:00~18:00;,9:00~12:00;,15:00~18:00;,9:00~12:00;,,,,,0,港南4-6-7 キャピタルタワー3階
国際医療福祉大学三田病院三田1-4-3,100148,国際医療福祉大学三田病院,東京都港区三田1-4-3,139.7424769,35.65369757,108-8329,03-3451-8121,,1,1,1,,,港区,13103,三田,1-4-3,,1,1,,1,,,,9:00~12:00;,12:00~16:00;,9:00~12:00;,12:00~16:00;,9:00~12:00;,12:00~16:00;,9:00~12:00;,12:00~16:00;,9:00~12:00;,12:00~16:00;,9:00~12:00;,12:00~16:00;,,,英語・中国語（状況によっては対応できない場合もあり）,0,三田1-4-3
医療法人社団三育会 新宿ヒロクリニック大久保2-11-15 大林ビル1・2階,100150,医療法人社団三育会 新宿ヒロクリニック,東京都新宿区大久保2-11-15,139.7069295,35.70344555,133-0072,03-5272-5600,,1,1,,,,新宿区,13104,大久保,2-11-15,大林ビル1・2階,1,,1,1,1,1,,9:00~12:00;,,9:00~12:00;,,9:00~12:00;,,9:00~12:00;,,9:00~12:00;,,,,,,日本、ネパール、中国,,大久保2-11-15 大林ビル1・2階
柳沢クリニック片町2-3 菱和ビル3F,100151,柳沢クリニック,東京都新宿区片町2-3,139.7250003,35.69205614,160-0001,03-5368-1303,,1,1,,,,新宿区,13104,片町,2-3,菱和ビル3F,1,,,,,1,,,12:00~17:00;,,12:00~17:00;,,,,12:00~17:00;,,12:00~17:00;,,12:00~17:00;,,,,0,片町2-3 菱和ビル3F
ねぎし内科診療所四谷三丁目九番地 光明堂ビル５階,100152,ねぎし内科診療所,東京都新宿区四谷三丁目九番地,139.7200558,35.68767018,160-0004,03-5369-2041,,1,1,1,,,新宿区,13104,四谷,三丁目九番地,光明堂ビル５階,1,,1,1,1,1,,,16:30~18:30;,,,,,,,,16:30~18:30;,,16:30~18:30;,,16:30~18:30;,,1,四谷三丁目九番地 光明堂ビル５階
四谷・血管クリニック四谷1‐8‐14 四谷1丁目ビル2階,100153,四谷・血管クリニック,東京都新宿区四谷1-8-14,139.7286498,35.68641415,160-0004,03-6380-6252,,1,1,1,,,新宿区,13104,四谷,1‐8‐14,四谷1丁目ビル2階,1,,1,1,,1,,,12:00~15:00;,,12:00~15:00;,,12:00~15:00;,,12:00~15:00;,,12:00~15:00;,,,,,英語 ノルウェー語,0,四谷1‐8‐14 四谷1丁目ビル2階
佐藤内科小児科医院四谷1-15-1F,100154,佐藤内科小児科医院,東京都新宿区四谷1-15,139.7275792,35.6849448,160-0004,03-3351-3007,,1,1,1,1,1,新宿区,13104,四谷,1-15,1F,,,1,1,,,,9:00~10:00;,13:00~14:00;,9:00~10:00;,13:00~14:00;,,,9:00~10:00;,13:00~14:00;,9:00~10:00;,13:00~14:00;,9:00~10:00;,,,,外国語対応は不可で,0,四谷1-15-1F
医療法人社団幸清会 四谷クリニック四谷1-2-30 第二四谷中村ビル3F,100155,医療法人社団幸清会 四谷クリニック,東京都新宿区四谷1-2-30,139.7288132,35.68568006,160-0004,03-3226-9028,,1,1,1,,,新宿区,13104,四谷,1-2-30,第二四谷中村ビル3F,1,,,,,1,,10:00~13:00;,16:00~19:00;,10:00~13:00;,,10:00~13:00;,16:00~19:00;,10:00~13:00;,,10:00~13:00;,16:00~19:00;,,,,,,0,四谷1-2-30 第二四谷中村ビル3F
医療法人社団四谷森田 もりた眼科小児科四谷1-6-1-205B コモレ四谷 （届出名称は四谷タワーコモレMall）,100156,医療法人社団四谷森田 もりた眼科小児科,東京都新宿区四谷1-6-1,139.7291381,35.68734316,160-0004,03-6380-5363,,1,1,,1,,新宿区,13104,四谷,1-6-1,205B コモレ四谷 （届出名称は四谷タワーコモレMall）,,,,,,,,,12:00~15:00;,,12:00~13:00;,,12:00~15:00;,,12:00~13:00;,,12:00~15:00;,,12:00~15:00;,,12:00~15:00;,,0,四谷1-6-1-205B コモレ四谷 （届出名称は四谷タワーコモレMall）
四谷・長島クリニック若葉1-4-7,100157,四谷・長島クリニック,東京都新宿区若葉1-4-7,139.7240086,35.68612875,160-0011,03-5368-1686,,1,1,,,,新宿区,13104,若葉,1-4-7,,1,,1,,1,1,,12:00~13:00;,18:00~19:00;,12:00~13:00;,,,,,,12:00~13:00;,18:00~19:00;,12:00~13:00;,,,14:00~15:00;,,0,若葉1-4-7
新宿ホームクリニック内藤町1 ガーデンクロス新宿御苑1階,100158,新宿ホームクリニック,東京都新宿区内藤町1,139.7152794,35.68496526,160-0014,03-6273-2109,,1,1,1,,1,新宿区,13104,内藤町,1,ガーデンクロス新宿御苑1階,1,,1,1,,1,,10:00~12:00;,0:00~19:00;,10:00~12:00;,0:00~19:00;,10:00~12:00;,0:00~19:00;,10:00~12:00;,0:00~19:00;,0:00~0:00;,0:00~0:00;,9:00~12:00;,0:00~0:00;,0:00~0:00;,0:00~0:00;,無し,0,内藤町1 ガーデンクロス新宿御苑1階
医療法人社団泰光会 歌舞伎町ひかりクリニック歌舞伎町2-46-8新宿日章ビル9階,100159,医療法人社団泰光会 歌舞伎町ひかりクリニック,東京都新宿区歌舞伎町2-46-8,139.7007134,35.69783785,160-0021,03-5888-4188,,1,1,1,,,新宿区,13104,歌舞伎町,2-46-8,新宿日章ビル9階,1,,,1,,1,,,17:00~19:00;,,17:00~19:00;,,17:00~19:00;,,,,17:00~19:00;,,13:00~15:00;,,,,0,歌舞伎町2-46-8新宿日章ビル9階
新宿区医師会区民健康センター新宿７-２６-４,100160,新宿区医師会区民健康センター,東京都新宿区新宿7-26-4,139.7096761,35.69804983,160-0022,03-3205-2111,,1,1,,1,,新宿区,13104,新宿,７-２６-４,,,,1,1,,,,,,,,,,,,,,,18:00~20:00;,9:30~11:30;,14:00~16:30;,,1,新宿７-２６-４
新宿東口クリニック新宿3-17-5　T＆TⅢビル６階,100161,新宿東口クリニック,東京都新宿区新宿3-17-5,139.7030914,35.692026,160-0022,03-5366-3389,,1,1,1,,,新宿区,13104,新宿,3-17-5,T＆TⅢビル６階,1,,1,1,1,1,,10:00~14:00;,15:30~19:30;,10:00~14:00;,15:30~19:30;,10:00~14:00;,15:30~19:30;,10:00~14:00;,15:30~19:30;,10:00~14:00;,15:30~19:30;,10:00~14:00;,,,,,0,新宿3-17-5　T＆TⅢビル６階
医療法人社団 鉄医会 ナビタスクリニック新宿新宿4-1-6 ニュウマン新宿7F,100162,医療法人社団 鉄医会 ナビタスクリニック新宿,東京都新宿区新宿4-1-6,139.7025917,35.68856248,160-0022,web予約,https://www.yoyaku-clinic.jp/navitas/shinjuku/user/top.htm,1,1,1,,,新宿区,13104,新宿,4-1-6,ニュウマン新宿7F,1,,,1,,1,,,16:00~20:00;,10:00~13:00;,15:00~20:00;,,16:00~20:00;,,17:30~20:00;,,16:00~20:00;,,,,13:00~16:00;,英語・中国語,0,新宿4-1-6 ニュウマン新宿7F
医療法人社団和光会藤村内科外科クリニック新宿5-10-12,100163,医療法人社団和光会藤村内科外科クリニック,東京都新宿区新宿5-10-12,139.7081794,35.69325265,160-0022,03-3351-0570,,1,1,,,,新宿区,13104,新宿,5-10-12,,1,,,,,1,,10:00~11:00;,,10:00~11:00;,,10:00~11:00;,,10:00~11:00;,,10:00~11:00;,,,,,,,,新宿5-10-12
医療法人社団国穗会 新宿イーストサイドたけうち内科新宿6-27-30 新宿イーストサイドスクエアB1F,100164,医療法人社団国穗会 新宿イーストサイドたけうち内科,東京都新宿区新宿6-27-30,139.7086918,35.69668479,160-0022,03-6205-5315,,1,1,1,,,新宿区,13104,新宿,6-27-30,新宿イーストサイドスクエアB1F,1,1,1,1,1,1,,12:00~13:00;,18:00~19:00;,12:00~13:00;,18:00~19:00;,12:00~13:00;,18:00~19:00;,12:00~13:00;,18:00~19:00;,12:00~13:00;,18:00~19:00;,12:00~13:00;,,,,,,新宿6-27-30 新宿イーストサイドスクエアB1F
医療法人社団二葉会東新宿駅前クリニック新宿七丁目２７番１２号コンフォリア東新宿ステーションフロント２階,100165,医療法人社団二葉会東新宿駅前クリニック,東京都新宿区新宿七丁目27番12号,139.7080468,35.69914081,160-0022,03-3203-5331,,1,1,1,,,新宿区,13104,新宿,七丁目２７番１２号,コンフォリア東新宿ステーションフロント２階,1,,1,1,1,1,,9:00~13:00;,15:00~19:00;,9:00~13:00;,15:00~19:00;,9:00~13:00;,15:00~19:00;,9:00~13:00;,15:00~19:00;,9:00~13:00;,15:00~19:00;,9:00~13:00;,,,,,,新宿七丁目２７番１２号コンフォリア東新宿ステーションフロント２階
医療法人社団優久会 根本医院西新宿4-10-15,100166,医療法人社団優久会 根本医院,東京都新宿区西新宿4-10-15,139.685894,35.68931571,160-0023,03-3377-6513,,1,1,1,1,1,新宿区,13104,西新宿,4-10-15,,1,,1,1,,,,11:40~12:30;,0:00,11:40~12:30;,0:00,11:40~12:30;,0:00,0:00,0:00,11:40~12:30;,0:00,0:00,0:00,0:00,0:00,対応不可,0,西新宿4-10-15
医療法人社団尚高会 西新宿きさらぎクリニック西新宿6-6-2 新宿国際ビルディング1階,100167,医療法人社団尚高会 西新宿きさらぎクリニック,東京都新宿区西新宿6-6-2,139.6912126,35.69272405,160-0023,03-3344-0529,,1,1,1,,,新宿区,13104,西新宿,6-6-2,新宿国際ビルディング1階,1,1,1,,1,1,,11:00~13:00;,16:00~18:00;,11:00~13:00;,16:00~18:00;,11:00~13:00;,16:00~18:00;,11:00~13:00;,16:00~18:00;,11:00~13:00;,16:00~18:00;,,,,,,0,西新宿6-6-2 新宿国際ビルディング1階
医療法人社団SEC 新宿駅前クリニック皮膚科内科泌尿器科西新宿1-12-11山銀ビル5階,100168,医療法人社団SEC 新宿駅前クリニック皮膚科内科泌尿器科,東京都新宿区西新宿1-12-11,139.697152,35.68995425,160-0023,03-6304-5253,,1,1,,,,新宿区,13104,西新宿,1-12-11,山銀ビル5階,1,,,,1,,,10:00~13:00;,15:00~18:00;,10:00~13:00;,15:00~18:00;,10:00~13:00;,15:00~18:00;,10:00~13:00;,15:00~18:00;,10:00~13:00;,15:00~18:00;,,,,,外国語不可,0,西新宿1-12-11山銀ビル5階
新宿南口まめクリニック西新宿1-18-7博愛堂ビル10階,100169,新宿南口まめクリニック,東京都新宿区西新宿1-18-7,139.698169,35.68858301,160-0023,web予約,https://reza.3bees.com/p/8bdd/online_reservations/appointments?calendar_id-2652,1,1,1,,,新宿区,13104,西新宿,1-18-7,博愛堂ビル10階,1,,,,,1,,10:00~12:00;,18:00~22:00;,10:00~12:00;,18:00~22:00;,10:00~12:00;,18:00~22:00;,10:00~12:00;,18:00~22:00;,10:00~12:00;,18:00~22:00;,10:00~12:00;,13:00~18:00;,10:00~12:00;,13:00~18:00;,,0,西新宿1-18-7博愛堂ビル10階
医療法人社団千達会 たつきクリニック西新宿7-16-14ミクラ西新宿ビル2階,100170,医療法人社団千達会 たつきクリニック,東京都新宿区西新宿7-16-14,139.6977342,35.69600091,160-0023,03-5348-7074,,1,1,1,,,新宿区,13104,西新宿,7-16-14,ミクラ西新宿ビル2階,1,,,1,,,,,15:00~17:00;,,15:00~17:00;,,15:00~17:00;,,,,15:00~17:00;,,15:00~16:00;,,,日本,,西新宿7-16-14ミクラ西新宿ビル2階
"エルブイビークリニック西新宿３-９-１
西新宿ティーオービル5階",100171,エルブイビークリニック,東京都新宿区西新宿3-9-1,139.6897516,35.68511919,160-0023,web予約,lvbcl.jp,1,1,1,,,新宿区,13104,西新宿,３-９-１,西新宿ティーオービル5階,1,,1,1,,1,,7:00~12:00;,13:00~19:00;,,,,,8:00~12:00;,13:00~19:00;,8:00~12:00;,13:00~19:00;,8:00~12:00;,13:00~19:00;,8:00~12:00;,13:00~19:00;,英語,1,"西新宿３-９-１
西新宿ティーオービル5階"
公益財団法人東京都保健医療公社 大久保病院歌舞伎町2-44-1,100172,公益財団法人東京都保健医療公社 大久保病院,東京都新宿区歌舞伎町2-44-1,139.701143,35.69669715,160-8488,03-5273-7711,,1,1,,,,新宿区,13104,歌舞伎町,2-44-1,,1,,1,1,1,1,,0:00~12:00;,12:00~24:00;,0:00~12:00;,12:00~24:00;,0:00~12:00;,12:00~24:00;,0:00~12:00;,12:00~24:00;,0:00~12:00;,12:00~24:00;,0:00~12:00;,12:00~24:00;,0:00~12:00;,12:00~24:00;,英語、中国語、韓国語,1,歌舞伎町2-44-1
久木田医院西落合1-9-8,100174,久木田医院,東京都新宿区西落合1-9-8,139.683193,35.7212739,161-0031,03-3952-5550,,1,1,1,1,1,新宿区,13104,西落合,1-9-8,,1,,1,1,1,1,,9:30~13:00;,14:30~19:00;,9:30~13:00;,14:30~19:00;,9:30~13:00;,14:30~19:00;,,,9:30~13:00;,14:30~19:00;,9:30~13:30;,,,,なし,0,西落合1-9-8
目白ブライトクリニック下落合3-21-3,100175,目白ブライトクリニック,東京都新宿区下落合3-21-3,139.7015236,35.72276198,161-0033,03-3565-5788,,1,1,1,1,1,新宿区,13104,下落合,3-21-3,,1,,1,1,,,,12:00~13:00;,,12:00~13:00;,,,,12:00~13:00;,,12:00~13:00;,,11:30~12:30;,,,,対応していない,0,下落合3-21-3
医療法人社団千晶会落合駅前クリニック上落合３-１０-３ 加藤ビル１F,100176,医療法人社団千晶会落合駅前クリニック,東京都新宿区上落合3-10-3,139.6834186,35.71029755,161-0034,03-5348-6535,,1,1,1,1,1,新宿区,13104,上落合,３-１０-３,加藤ビル１F,1,,1,,1,1,,9:00~12:00;,15:00~17:00;,9:00~12:00;,15:00~17:00;,,,9:00~12:00;,15:00~17:00;,9:00~12:00;,15:00~17:00;,,,9:00~11:00;,,,0,上落合３-１０-３ 加藤ビル１F
伊藤メディカルクリニック上落合2-25-3-101,100177,伊藤メディカルクリニック,東京都新宿区上落合2-25-3,139.686896,35.7110248,161-0034,03-3361-6318,,1,1,1,1,1,新宿区,13104,上落合,2-25-3,101,1,,,,,1,,,12:00~13:00;,,12:00~13:00;,,12:00~13:00;,,,,12:00~13:00;,,12:00~13:00;,,,,0,上落合2-25-3-101
ほそかわ内科クリニック中井2-20-7熊谷ビル１階,100178,ほそかわ内科クリニック,東京都新宿区中井2-20-7,139.6838005,35.71537949,161-0035,03-3952-4181,,1,1,,,,新宿区,13104,中井,2-20-7,熊谷ビル１階,,,,,,,,9:00~12:00;,14:00~16:00;,9:00~12:00;,14:00~16:00;,,,9:00~12:00;,14:00~16:00;,9:00~12:00;,14:00~16:00;,9:00~12:00;,,,,英語,0,中井2-20-7熊谷ビル１階
社会福祉法人聖母会 聖母病院中落合二丁目5番1号,100179,社会福祉法人聖母会 聖母病院,東京都新宿区中落合二丁目5番1号,139.694364,35.71991943,161-8521,03-3951-1111,,1,1,1,,,新宿区,13104,中落合,二丁目5番1号,,1,,,1,,,,9:00~11:00;,13:00~15:00;,9:00~11:00;,13:00~15:00;,9:00~11:00;,13:00~15:00;,9:00~11:00;,13:00~15:00;,9:00~11:00;,13:00~15:00;,9:00~11:00;,,,,,0,中落合二丁目5番1号
医療法人朗会耳鼻いんこう科山西クリニック早稲田鶴巻町518第一石川ビル2階,100180,医療法人朗会耳鼻いんこう科山西クリニック,東京都新宿区早稲田鶴巻町518,139.722511,35.7080952,162-0041,03-5155-0822,,1,1,1,,,新宿区,13104,早稲田,鶴巻町518,第一石川ビル2階,1,,1,1,,1,,10:00~12:00;,15:00~17:00;,10:00~12:00;,15:00~17:00;,10:00~12:00;,15:00~17:00;,,,10:00~12:00;,15:00~17:00;,10:00~12:00;,,,,,0,早稲田鶴巻町518第一石川ビル2階
村橋医院早稲田町73 村橋ビル1階,100181,村橋医院,東京都新宿区早稲田町73,139.7217078,35.70665133,162-0042,03-3203-3538,,1,1,,1,,新宿区,13104,早稲田町,73,村橋ビル1階,1,,1,1,,1,,11:00~12:00;,18:00~19:00;,11:00~12:00;,18:00~19:00;,11:00~12:00;,18:00~19:00;,0:00,,11:00~12:00;,18:00~19:00;,0:00,12:00~13:00;,0:00,,,0,早稲田町73 村橋ビル1階
特定医療法人社団研精会　はらまちクリニック原町2-43　介護老人保健施設デンマークイン新宿1Ｆ,100182,特定医療法人社団研精会　はらまちクリニック,東京都新宿区原町2-43,139.7237192,35.69887951,162-0053,03-3341-8536,,1,1,,2,,新宿区,13104,原町,2-43,介護老人保健施設デンマークイン新宿1Ｆ,1,,1,1,,1,,9:00~12:00;,15:30~17:00;,9:00~12:00;,15:30~17:00;,9:00~12:00;,15:30~17:00;,9:00~12:00;,15:30~17:00;,9:00~12:00;,15:30~17:00;,9:00~12:00;,,,,,0,原町2-43　介護老人保健施設デンマークイン新宿1Ｆ
医療法人社団澄琴会 夏目坂皮フ科クリニック原町３-３７ アイランドビル１F,100183,医療法人社団澄琴会 夏目坂皮フ科クリニック,東京都新宿区原町3-37,139.7210428,35.70041042,162-0053,03-6205-6555,,1,1,1,1,1,新宿区,13104,原町,３-３７,アイランドビル１F,1,,,1,,,,12:00~15:00;,19:00~20:00;,12:00~15:00;,19:00~20:00;,,,12:00~15:00;,19:00~20:00;,12:00~15:00;,19:00~20:00;,12:00~14:00;,17:00~20:00;,,,中国語,0,原町３-３７ アイランドビル１F
医療法人社団愛智会 抜弁天クリニック余丁町8-7抜弁天ビル1階,100184,医療法人社団愛智会 抜弁天クリニック,東京都新宿区余丁町8-7,139.7136077,35.69757948,162-0055,0359191522,,1,1,1,1,1,新宿区,13104,余丁町,8-7,抜弁天ビル1階,1,,,1,,,,13:00~14:00;,18:00~19:00;,13:00~14:00;,18:00~19:00;,13:00~14:00;,18:00~19:00;,,,13:00~14:00;,18:00~19:00;,13:00~15:00;,,,,,0,余丁町8-7抜弁天ビル1階
医療法人社団 鉄友会 柳町病院市谷柳町２５番地,100185,医療法人社団 鉄友会 柳町病院,東京都新宿区市谷柳町25番地,139.7268848,35.69890792,162-0061,03-3268-3521,,1,1,,,,新宿区,13104,市谷柳町,２５番地,,1,,,,1,,,9:00~12:00;,14:00~16:30;,9:00~12:00;,14:00~16:30;,9:00~12:00;,,9:00~12:00;,14:00~16:30;,9:00~12:00;,14:00~16:30;,9:00~12:00;,14:00~16:30;,,,英語,0,市谷柳町２５番地
"曙橋よつばファミリークリニック市谷仲之町3-45
市ヶ谷仲之町ヒルズクレスト1階",100186,曙橋よつばファミリークリニック,東京都新宿区市谷仲之町3-45,139.7243792,35.6944941,162-0064,03-5315-0155,,1,1,1,1,1,新宿区,13104,市谷仲之町,3-45,市ヶ谷仲之町ヒルズクレスト1階,1,,1,1,,,,9:30~12:00;,15:00~18:00;,9:30~12:00;,15:00~18:00;,9:30~12:00;,,,,9:30~12:00;,15:00~18:00;,9:30~13:00;,,9:30~13:00;,,,0,"市谷仲之町3-45
市ヶ谷仲之町ヒルズクレスト1階"
伊藤医院富久町２８-５,100187,伊藤医院,東京都新宿区富久町28-5,139.7146213,35.69397375,162-0067,03-3341-6035,,1,1,1,1,1,新宿区,13104,富久町,２８-５,,1,,,,1,1,,9:00~14:00;,16:00~18:00;,9:00~14:00;,16:00~18:00;,9:00~14:00;,16:00~18:00;,9:00~14:00;,16:00~18:00;,9:00~14:00;,16:00~18:00;,9:00~14:00;,,,,,0,富久町２８-５
春日メディカルクリニック山吹町334セブンファイブビル1階,100188,春日メディカルクリニック,東京都新宿区山吹町334,139.7295849,35.70760377,162-0801,03-5206-5515,,1,1,,,,新宿区,13104,山吹町,334,セブンファイブビル1階,1,,,,,1,,9:00~12:00;,15:00~18:00;,9:00~12:00;,15:00~18:00;,9:00~12:00;,15:00~18:00;,,,9:00~12:00;,15:00~18:00;,9:00~12:00;,12:00~14:00;,9:00~12:00;,,,0,山吹町334セブンファイブビル1階
執行クリニック赤城下町62番地,100189,執行クリニック,東京都新宿区赤城下町62番地,139.7341338,35.70535415,162-0803,03-3235-9939,,1,1,1,,,新宿区,13104,赤城下町,62番地,,1,,1,,,1,,11:00~12:00;,16:00~17:00;,11:00~12:00;,16:00~17:00;,11:00~12:00;,16:00~17:00;,,,11:00~12:00;,16:00~17:00;,11:00~12:00;,,,,英語,0,赤城下町62番地
医療法人社団喜生会新小川町クリニック新小川町6-40 入交ビル3階,100190,医療法人社団喜生会新小川町クリニック,東京都新宿区新小川町6-40,139.7430238,35.70675355,162-0814,03-3235-5265,,1,1,1,,,新宿区,13104,新小川町,6-40,入交ビル3階,1,,1,1,1,1,,11:00~13:00;,16:00~18:00;,11:00~13:00;,16:00~18:00;,11:00~13:00;,16:00~18:00;,,,11:00~13:00;,16:00~18:00;,10:00~13:00;,,,,,0,新小川町6-40 入交ビル3階
あいクリニック下宮比町３-２ 飯田橋スクエアビル2階,100191,あいクリニック,東京都新宿区下宮比町3-2,139.7432952,35.70314087,162-0822,03-6265-3885,,1,1,1,,,新宿区,13104,下宮比町,３-２,飯田橋スクエアビル2階,1,,,,,1,,10:00~11:00;,17:30~18:30;,10:00~11:00;,,10:00~11:00;,17:30~18:30;,10:00~11:00;,,10:00~11:00;,17:30~18:30;,,,,,日本,0,下宮比町３-２ 飯田橋スクエアビル2階
飯田橋医院揚場町2-13,100192,飯田橋医院,東京都新宿区揚場町2-13,139.7422546,35.70258708,162-0824,03-3235-5151,,1,1,,1,1,新宿区,13104,揚場町,2-13,,1,,,1,,1,,9:00~10:00;,14:30~15:30;,9:00~10:00;,,9:00~10:00;,14:30~15:30;,,,9:00~10:00;,14:30~15:30;,9:00~10:00;,,,,,0,揚場町2-13
倉澤クリニック神楽坂3の5神楽坂センタービル6階,100193,倉澤クリニック,東京都新宿区神楽坂3の5,139.7409494,35.70094364,162-0825,03-5206-8820,,1,1,,,,新宿区,13104,神楽坂,3の5,神楽坂センタービル6階,,,,,,,,11:00~12:00;,15:00~16:00;,11:00~12:00;,15:00~16:00;,11:00~12:00;,15:00~16:00;,,,11:00~12:00;,15:00~16:00;,11:00~12:00;,,,,,,神楽坂3の5神楽坂センタービル6階
牛込台さこむら内科中町23 さこむら内科,100194,牛込台さこむら内科,東京都新宿区中町23,139.7339271,35.69883534,162-0835,03-3269-1783,,1,1,1,1,1,新宿区,13104,中町,23,さこむら内科,1,,1,1,1,1,,9:00~12:00;,15:00~17:00;,9:00~12:00;,15:00~17:00;,9:00~12:00;,15:00~15:00;,9:00~12:00;,15:00~17:00;,9:00~12:00;,15:00~17:00;,9:00~12:00;,,,,英語,0,中町23 さこむら内科
新宿NSビルスカイクリニック西新宿2-4-1　新宿NSビル4階,100195,新宿NSビルスカイクリニック,東京都新宿区西新宿2-4-1,139.6934503,35.68808877,163-0804,0362585755,,1,1,1,,,新宿区,13104,西新宿,2-4-1,新宿NSビル4階,1,,1,1,1,1,,,,,,,,,,,,10:00~12:00;,,10:00~12:00;,,英語,1,西新宿2-4-1　新宿NSビル4階
オペラシティクリニック西新宿3-20-2東京オペラシティビル７階,100196,オペラシティクリニック,東京都新宿区西新宿3-20-2,139.6869068,35.68283981,163-1407,03-5353-7100,https://medical.apokul.jp/web/34/reservations/add/visit,1,1,1,,,新宿区,13104,西新宿,3-20-2,東京オペラシティビル７階,1,,,,,1,,12:00~13:00;,16:00~17:00;,12:00~13:00;,16:00~17:00;,12:00~13:00;,16:00~17:00;,12:00~13:00;,16:00~17:00;,12:00~13:00;,16:00~17:00;,,,,,,0,西新宿3-20-2東京オペラシティビル７階
医療法人社団慶潤会ＫＤＤＩビルクリニック西新宿2-3-2 ＫDDIビル1階,100197,医療法人社団慶潤会ＫＤＤＩビルクリニック,東京都新宿区西新宿2-3-2,139.6948276,35.68792683,163-8003,03-6386-0123,,1,1,1,,,新宿区,13104,西新宿,2-3-2,ＫDDIビル1階,1,,1,1,,1,,9:00~12:00;,14:00~18:00;,9:00~12:00;,13:00~14:00;,9:00~12:00;,14:00~18:00;,9:00~12:00;,14:00~18:00;,9:00~12:00;,14:00~18:00;,,,,,,0,西新宿2-3-2 ＫDDIビル1階
医療法人社団 西北診療所西早稲田3-12-4,100198,医療法人社団 西北診療所,東京都新宿区西早稲田3-12-4,139.7149142,35.7099787,169-0051,03-3203-5660,,1,1,1,,,新宿区,13104,西早稲田,3-12-4,,1,,1,1,,1,,10:00~12:00;,15:00~17:00;,10:00~12:00;,15:00~17:00;,10:00~12:00;,,10:00~12:00;,15:00~17:00;,10:00~12:00;,15:00~17:00;,9:30~11:30;,,,,,0,西早稲田3-12-4
岡田小児科クリニック大久保1-5-15 岡田ビル1Ｆ,100200,岡田小児科クリニック,東京都新宿区大久保1-5-15,139.706205,35.7007125,169-0072,03-3200-1236,,1,1,,2,,新宿区,13104,大久保,1-5-15,岡田ビル1Ｆ,1,,1,1,1,1,,9:00~12:00;,15:00~18:00;,9:00~12:00;,15:00~18:00;,,,9:00~12:00;,15:00~18:00;,9:00~12:00;,15:00~18:00;,9:00~12:00;,,,,日本語、英語,0,大久保1-5-15 岡田ビル1Ｆ
医療法人社団医進会小田クリニック大久保1-11-3 大東ビル2F,100201,医療法人社団医進会小田クリニック,東京都新宿区大久保1-11-3,139.7040167,35.69857369,169-0072,03-5273-0770,,1,1,1,,,新宿区,13104,大久保,1-11-3,大東ビル2F,1,,1,1,1,1,,9:00~12:00;,14:00~17:00;,9:00~12:00;,14:00~17:00;,9:00~12:00;,14:00~17:00;,9:00~12:00;,14:00~17:00;,9:00~12:00;,14:00~17:00;,,,,,韓国語、中国語、英語,0,大久保1-11-3 大東ビル2F
寺尾クリニカ百人町3-28-5グランドヒルズA,100202,寺尾クリニカ,東京都新宿区百人町3-28-5,139.6959457,35.70497776,169-0073,03-5338-9955,,1,1,1,,1,新宿区,13104,百人町,3-28-5,グランドヒルズA,1,,,,,1,,,16:30~17:00;,,16:30~17:00;,,16:00~17:00;,,16:00~17:00;,,16:00~17:00;,,,,,,0,百人町3-28-5グランドヒルズA
医療法人社団広恵会 春山記念病院百人町1-24-5,100203,医療法人社団広恵会 春山記念病院,東京都新宿区百人町1-24-5,139.6978285,35.69836323,169-0073,03-3363-1661,,1,1,1,,,新宿区,13104,百人町,1-24-5,,1,,,1,,,,,14:00~15:30;,,14:00~15:30;,,14:00~15:30;,,14:00~15:30;,,,,,,,,0,百人町1-24-5
西戸山クリニック百人町3-7-8原ビル2階,100204,西戸山クリニック,東京都新宿区百人町3-7-8,139.6975772,35.70764325,169-0073,03-5337-7501,,1,1,,,,新宿区,13104,百人町,3-7-8,原ビル2階,1,,1,1,,,,9:00~13:00;,14:30~18:30;,,,9:00~13:00;,14:30~18:30;,9:00~13:00;,,9:00~13:00;,14:30~18:30;,9:00~13:00;,,9:00~13:00;,,,0,百人町3-7-8原ビル2階
新大久保クリニック百人町2-20-21 1階,100205,新大久保クリニック,東京都新宿区百人町2-20-21,139.6979389,35.70243733,169-0073,03-3371-7033,,1,1,1,,,新宿区,13104,百人町,2-20-21,1階,1,,1,1,,,,10:00~13:00;,15:30~17:30;,10:00~13:00;,15:30~17:30;,,,10:00~13:00;,15:30~17:30;,10:00~13:00;,15:30~17:30;,9:30~13:30;,,,,,0,百人町2-20-21 1階
宮田胃腸内科皮膚科クリニック百人町1-11-2 MOMOビル2Ｆ,100206,宮田胃腸内科皮膚科クリニック,東京都新宿区百人町1-11-2,139.6993614,35.69983278,169-0073,03-5937-0668,,1,1,1,,,新宿区,13104,百人町,1-11-2,MOMOビル2Ｆ,1,,1,1,,1,,,16:00~17:30;,,16:00~17:30;,,16:00~17:30;,,,,16:00~17:30;,,,,,英語、中国語、台湾語、タイ語,0,百人町1-11-2 MOMOビル2Ｆ
医療法人社団 柏木医科クリニック北新宿1-13-19 弘林ビル 3階,100207,医療法人社団 柏木医科クリニック,東京都新宿区北新宿1-13-19,139.6932308,35.70178514,169-0074,03-5389-2213,,1,1,,,1,新宿区,13104,北新宿,1-13-19,弘林ビル 3階,,,1,1,1,,,12:00~13:00;,18:00~19:00;,12:00~13:00;,18:00~19:00;,,,12:00~13:00;,18:00~19:00;,12:00~13:00;,18:00~19:00;,12:00~13:00;,,,,日本 韓国,0,北新宿1-13-19 弘林ビル 3階
竹田クリニック北新宿3-1-21,100208,竹田クリニック,東京都新宿区北新宿3-1-21,139.6950246,35.70207247,169-0074,03-3371-4114,,1,1,1,1,1,新宿区,13104,北新宿,3-1-21,,1,,1,1,1,1,,8:30~13:00;,14:30~19:00;,8:30~13:00;,14:30~19:00;,8:30~13:00;,,8:30~13:00;,14:30~19:00;,8:30~13:00;,14:30~19:00;,8:30~13:00;,14:30~17:00;,,,中国語(時間規制あり),0,北新宿3-1-21
くれクリニック北新宿2-21-1 新宿フロントタワー 3F,100209,くれクリニック,東京都新宿区北新宿2-21-1,139.6893938,35.69609227,169-0074,03-6279-2893,,1,1,,,,新宿区,13104,北新宿,2-21-1,新宿フロントタワー 3F,,,,,,,,11:00~12:00;,15:00~18:00;,11:00~12:00;,15:00~18:00;,11:00~12:00;,15:00~18:00;,11:00~12:00;,15:00~18:00;,11:00~12:00;,15:00~18:00;,11:00~12:00;,,,,,,北新宿2-21-1 新宿フロントタワー 3F
牛込外科胃腸科高田馬場 4-10-12,100210,牛込外科胃腸科,東京都新宿区高田馬場4-10-12,139.7028865,35.71295956,169-0075,03-3361-0301,,1,1,,,,新宿区,13104,高田馬場,4-10-12,,,,,,,,,11:00~13:30;,12:00~13:30;,11:00~13:30;,12:00~13:30;,11:00~13:30;,12:00~13:30;,,,11:00~13:30;,12:00~13:30;,11:00~13:30;,12:00~13:30;,,,英語,0,高田馬場 4-10-12
助川クリニック高田馬場1-5-10,100211,助川クリニック,東京都新宿区高田馬場1-5-10,139.7081219,35.7109484,169-0075,03-3209-3333,,1,1,,,,新宿区,13104,高田馬場,1-5-10,,1,,1,,1,1,,10:00~12:00;,16:00~18:00;,10:00~12:00;,16:00~18:00;,10:00~12:00;,16:00~18:00;,10:00~12:00;,16:00~18:00;,10:00~12:00;,16:00~18:00;,,,,,,0,高田馬場1-5-10
耳鼻咽喉科ヒロ医院高田馬場3-2-5ANビル7階,100212,耳鼻咽喉科ヒロ医院,東京都新宿区高田馬場3-2-5,139.7031362,35.71393642,169-0075,03-3369-3033,,1,1,,,,新宿区,13104,高田馬場,3-2-5,ANビル7階,1,,,1,,,,12:00~13:00;,16:50~17:30;,12:00~13:00;,16:50~17:30;,,,12:00~13:00;,16:50~17:30;,12:00~13:00;,16:50~17:30;,12:00~13:00;,,,,,0,高田馬場3-2-5ANビル7階
医療法人泰篤会 保坂こどもクリニック白山5-27-12 １F,100214,医療法人泰篤会 保坂こどもクリニック,東京都文京区白山5-27-12,139.7500958,35.72451099,112-0001,03-3946-0641,,1,1,,1,,文京区,13105,白山,5-27-12,１F,1,,,1,1,,,11:00~13:00;,17:00~19:00;,11:00~13:00;,17:00~19:00;,11:00~13:00;,17:00~19:00;,11:00~13:00;,17:00~18:00;,11:00~13:00;,17:00~19:00;,11:00~13:00;,16:00~17:00;,,,,,白山5-27-12 １F
中村クリニック小石川３-２７-６  コスモ小石川１０３,100215,中村クリニック,東京都文京区小石川3-27-6,139.7505825,35.71297938,112-0002,03-3818-7677,,1,1,,,,文京区,13105,小石川,３-２７-６, コスモ小石川１０３,1,,1,1,1,1,,11:00~12:00;,15:00~16:00;,11:00~12:00;,15:00~16:00;,11:00~12:00;,15:00~16:00;,11:00~12:00;,,11:00~12:00;,15:00~16:00;,11:00~12:00;,,,,英語,0,小石川３-２７-６  コスモ小石川１０３
森こどもクリニック小石川5-40-21,100216,森こどもクリニック,東京都文京区小石川5-40-21,139.7432159,35.71739421,112-0002,03-5803-7887,http://paa.jp/clinic/115501/,1,1,,2,,文京区,13105,小石川,5-40-21,,1,,1,,1,1,,9:00~12:00;,16:00~17:00;,9:00~12:00;,,9:00~12:00;,16:00~17:00;,,,9:00~12:00;,16:00~17:00;,9:00~13:00;,,,,英語,0,小石川5-40-21
医療法人緑寿会 小林クリニック小石川3-16-19,100217,医療法人緑寿会 小林クリニック,東京都文京区小石川3-16-19,139.7487685,35.71271061,112-0002,03-5689-2025,,1,1,1,,,文京区,13105,小石川,3-16-19,,1,,1,,1,1,,9:00~12:00;,14:00~17:00;,9:00~12:00;,14:00~17:00;,9:00~12:00;,14:00~17:00;,,,9:00~12:00;,14:00~17:00;,9:00~13:00;,,,,,0,小石川3-16-19
小石川循環器内科クリニック小石川2-24-14,100218,小石川循環器内科クリニック,東京都文京区小石川2-24-14,139.7512642,35.71167256,112-0002,03-6801-8450,,1,1,1,,,文京区,13105,小石川,2-24-14,,1,,1,1,1,1,,9:00~13:00;,15:00~19:00;,9:00~13:00;,15:00~19:00;,9:00~13:00;,15:00~19:00;,9:00~13:00;,,,14:00~19:00;,9:00~14:00;,,,,英語,0,小石川2-24-14
東京保健生活協同組合 セツルメント菊坂診療所小石川1-24-3,100219,東京保健生活協同組合 セツルメント菊坂診療所,東京都文京区小石川1-24-3,139.7498795,35.71405411,112-0002,03-3811-0016,,1,1,,,,文京区,13105,小石川,1-24-3,,1,,,,,1,,12:00~13:00;,16:00~17:00;,12:00~13:00;,16:00~17:00;,12:00~13:00;,,12:00~13:00;,16:00~17:00;,12:00~13:00;,16:00~17:00;,12:00~13:00;,,,,,0,小石川1-24-3
ココメディカルクリニック小石川5-34-10 COCOビル,100220,ココメディカルクリニック,東京都文京区小石川5-34-10,139.741108,35.71966361,112-0002,03-6882-3319,,1,1,1,,,文京区,13105,小石川,5-34-10,COCOビル,1,1,1,1,1,1,,7:00~11:00;,17:00~21:00;,,,,,7:00~10:00;,17:00~21:00;,,,9:00~12:30;,13:00~16:00;,9:00~12:30;,13:00~16:00;,中国語、英語,1,小石川5-34-10 COCOビル
小石川医院春日2-10-18,100221,小石川医院,東京都文京区春日2-10-18,139.7423347,35.71284221,112-0003,03-3816-3151,,1,1,1,,,文京区,13105,春日,2-10-18,,1,,,,,1,,9:00~12:00;,15:00~18:00;,9:00~12:00;,15:00~18:00;,9:00~12:00;,15:00~18:00;,,,9:00~12:00;,15:00~18:00;,9:00~12:00;,,,,,,春日2-10-18
医療法人社団健永いずみ会 岩瀬クリニック小日向4-6-15 茗荷谷駅MFビル4階,100222,医療法人社団健永いずみ会 岩瀬クリニック,東京都文京区小日向4-6-15,139.7367463,35.71733197,112-0006,03-5940-7151,,1,1,1,,,文京区,13105,小日向,4-6-15,茗荷谷駅MFビル4階,1,,1,,1,1,,,12:30~15:00;,,12:30~15:00;,,12:30~15:00;,,,,12:30~15:00;,,12:00~12:30;,,,,0,小日向4-6-15 茗荷谷駅MFビル4階
医療法人社団春日会伝通院クリニック小日向４丁目６番１８号ステラメゾン茗荷谷201号室,100223,医療法人社団春日会伝通院クリニック,東京都文京区小日向4丁目6番18号,139.7370083,35.71739526,112-0006,03-6912-1565,,1,1,1,1,1,文京区,13105,小日向,４丁目６番１８号,ステラメゾン茗荷谷201号室,1,,,1,,1,,9:00~13:00;,14:00~18:00;,9:00~13:00;,13:00~18:00;,9:00~13:00;,14:00~18:00;,9:00~13:00;,14:00~18:00;,9:00~13:00;,14:00~18:00;,,14:00~18:00;,,,英語、ドイツ語,0,小日向４丁目６番１８号ステラメゾン茗荷谷201号室
小日向診療所小日向2-19-9トワベール小日向101号室,100224,小日向診療所,東京都文京区小日向2-19-9,139.7325461,35.71108897,112-0006,03-5810-1505,,1,1,1,,,文京区,13105,小日向,2-19-9,トワベール小日向101号室,1,,1,1,1,1,,8:00~9:00;,,,18:00~19:00;,8:00~9:00;,,,18:00~19:00;,8:00~9:00;,,,,,,韓国語（水曜日以外）,0,小日向2-19-9トワベール小日向101号室
医療法人社団光永会光永クリニック千石４-４-１,100225,医療法人社団光永会光永クリニック,東京都文京区千石4-4-1,139.7399949,35.72746109,112-0011,03-3943-0270,,1,1,1,1,,文京区,13105,千石,４-４-１,,1,,1,,1,1,,11:30~12:30;,14:30~15:30;,11:30~12:30;,14:30~15:30;,11:30~12:30;,,11:30~12:30;,14:30~15:30;,11:30~12:30;,14:30~15:30;,11:30~12:30;,,,,,0,千石４-４-１
医療法人社団 杉交会 杉山クリニック千石2-13-13,100226,医療法人社団 杉交会 杉山クリニック,東京都文京区千石2-13-13,139.7400262,35.72223887,112-0011,03-3944-5933,,1,1,1,1,1,文京区,13105,千石,2-13-13,,1,,1,1,1,1,,9:00~12:00;,14:30~17:30;,9:00~12:00;,14:30~17:30;,,,9:00~12:00;,14:30~17:30;,9:00~12:00;,14:30~17:30;,9:00~12:00;,,,,日本語、英語,0,千石2-13-13
三輪医院千石4丁目， 26-8,100227,三輪医院,東京都文京区千石4丁目26-8,139.738622,35.73104414,112-0011,03-5976-9933,,1,1,1,,1,文京区,13105,千石,4丁目26-8,,1,,1,1,,1,,9:30~12:30;,15:00~18:30;,,17:00~18:30;,9:30~12:30;,15:00~18:30;,9:30~12:30;,15:00~18:30;,,,9:30~12:30;,,,,日本語のみ可。,0,千石4丁目， 26-8
吉村小児科大塚2-18-6,100228,吉村小児科,東京都文京区大塚2-18-6,139.7315681,35.72058813,112-0012,03-3943-3806,,1,1,1,1,1,文京区,13105,大塚,2-18-6,,1,,1,1,,1,,9:00~11:30;,,9:00~11:30;,,,,9:00~11:30;,,9:00~11:30;,,9:00~11:30;,,,,,0,大塚2-18-6
森内科大塚3-35-8クリサンス小石川1階,100229,森内科,東京都文京区大塚3-35-8,139.7385488,35.72120835,112-0012,03-3945-8188,,1,1,1,1,1,文京区,13105,大塚,3-35-8,クリサンス小石川1階,1,,1,1,1,1,,9:00~12:30;,14:30~18:30;,9:00~12:30;,14:30~18:30;,9:00~12:30;,14:30~18:30;,,,9:00~12:30;,14:30~18:30;,8:30~12:00;,12:00~13:30;,,,なし,0,大塚3-35-8クリサンス小石川1階
はりまざかクリニック耳鼻咽喉科・アレルギー科大塚１-５-１８ 大伴ビル９階A号,100230,はりまざかクリニック耳鼻咽喉科・アレルギー科,東京都文京区大塚1-5-18,139.7347881,35.71879017,112-0012,03-6304-1510,,1,1,,,,文京区,13105,大塚,１-５-１８,大伴ビル９階A号,1,1,1,1,,,,,,14:00~15:00;,19:00~20:00;,14:00~15:00;,19:00~20:00;,,,14:00~15:00;,19:00~20:00;,,17:00~18:00;,,13:00~14:00;,英語（院長） その他の言語はポケトークで対応しております,0,大塚１-５-１８ 大伴ビル９階A号
医療法人社団 和幸会 上田医院音羽1丁目20-15,100231,医療法人社団 和幸会 上田医院,東京都文京区音羽1丁目20-15,139.7289688,35.71538373,112-0013,03-3943-0268,,1,1,1,1,1,文京区,13105,音羽,1丁目20-15,,1,,1,1,1,1,,12:00~14:00;,18:00~19:00;,12:00~14:00;,18:00~19:00;,12:00~14:00;,18:00~19:00;,12:00~14:00;,18:00~19:00;,12:00~14:00;,18:00~19:00;,12:00~14:00;,,,,,0,音羽1丁目20-15
江戸川橋クリニック耳鼻咽喉科関口１-１９-６-４F 弥助ビル,100232,江戸川橋クリニック耳鼻咽喉科,東京都文京区関口1-19-6,139.734,35.70912513,112-0014,03-3235-3387,,1,1,1,1,1,文京区,13105,関口,１-１９-６,４F 弥助ビル,1,,1,1,1,1,,9:00~12:00;,15:00~17:00;,9:00~12:00;,15:00~17:00;,,,9:00~12:00;,15:00~17:00;,9:00~12:00;,15:00~17:00;,9:00~12:00;,15:00~17:00;,,,英語,0,関口１-１９-６-４F 弥助ビル
医療法人社団一専会 神楽坂ホームケアクリニック関口一丁目13番14号向井ビル2階,100233,医療法人社団一専会 神楽坂ホームケアクリニック,東京都文京区関口一丁目13番14号,139.7330738,35.70914688,112-0014,03-5227-7878,※必ず電話予約をお願いします,1,1,,,,文京区,13105,関口,一丁目13番14号,向井ビル2階,1,,1,1,1,1,,,17:30~18:00;,,17:30~18:00;,,17:30~18:00;,,17:30~18:00;,,17:30~18:00;,,,,,,0,関口一丁目13番14号向井ビル2階
松平小児科関口1-15-9,100234,松平小児科,東京都文京区関口1-15-9,139.7345874,35.70867171,112-0014,web予約,http：//matsudairashyounika.com/,1,1,,1,1,文京区,13105,関口,1-15-9,,1,,1,1,1,,,10:00~11:00;,,10:00~11:00;,,10:00~11:00;,,,,10:00~11:00;,,,,,,,1,関口1-15-9
"医療法人社団 すずき医院目白台１丁目２３-７
グリーンヒルズ目白台１０１",100235,医療法人社団 すずき医院,東京都文京区目白台1丁目23-7,139.7244912,35.71500834,112-0015,03-3941-1590,,1,1,1,1,,文京区,13105,目白台,１丁目２３-７,グリーンヒルズ目白台１０１,1,,1,1,1,1,,11:00~12:30;,17:00~18:00;,11:00~12:30;,17:00~18:00;,11:00~12:30;,,11:00~12:30;,17:00~18:00;,11:00~12:30;,17:00~18:00;,11:00~12:30;,,,,英語,0,"目白台１丁目２３-７
グリーンヒルズ目白台１０１"
八千代診療所白山1-5-8,100236,八千代診療所,東京都文京区白山1-5-8,139.7526169,35.71591724,113-0001,03-3811-4519,,1,1,1,1,,文京区,13105,白山,1-5-8,,1,,1,1,1,1,,12:00~13:00;,17:00~18:00;,12:00~13:00;,17:00~18:00;,12:00~13:00;,17:00~18:00;,,,12:00~13:00;,17:00~18:00;,12:00~13:00;,,,,日本語のみ,0,白山1-5-8
医療法人社団 中野小児科内科白山1-33-23ベルメゾン文京白山101,100237,医療法人社団 中野小児科内科,東京都文京区白山1-33-23,139.7525656,35.72173956,113-0001,0358058551,,1,1,1,1,,文京区,13105,白山,1-33-23,ベルメゾン文京白山101,1,,1,1,1,1,,10:00~12:00;,,10:00~12:00;,,10:00~12:00;,,10:00~12:00;,,10:00~12:00;,,10:00~11:00;,,,,,0,白山1-33-23ベルメゾン文京白山101
一般財団法人慈愛会 慈愛病院本郷6-12-5,100238,一般財団法人慈愛会 慈愛病院,東京都文京区本郷6-12-5,139.7568244,35.71314006,113-0003,03-3812-7360,,1,1,1,,,文京区,13105,本郷,6-12-5,,1,1,1,1,1,1,,9:00~12:00;,13:00~17:00;,9:00~12:00;,13:00~17:00;,9:00~12:00;,13:00~17:00;,9:00~12:00;,13:00~17:00;,9:00~12:00;,13:00~17:00;,9:00~12:00;,,,,,,本郷6-12-5
医療法人社団 靜美会 駒込かせだクリニック本駒込4-19-16 タウンハイム本駒込1F,100240,医療法人社団 靜美会 駒込かせだクリニック,東京都文京区本駒込4-19-16,139.757754,35.73141529,113-0021,03-5832-5665,,1,1,1,1,,文京区,13105,本駒込,4-19-16,タウンハイム本駒込1F,1,,1,1,1,1,,8:30~12:00;,15:00~17:30;,8:30~12:00;,14:00~17:30;,9:00~12:30;,,8:30~12:00;,15:00~17:30;,8:30~12:00;,15:00~17:30;,9:00~12:30;,,,,英語,0,本駒込4-19-16 タウンハイム本駒込1F
医療法人社団藤翔会 加藤内科胃腸科クリニック本駒込6-1-21コロナ社第三ビル1階,100241,医療法人社団藤翔会 加藤内科胃腸科クリニック,東京都文京区本駒込6-1-21,139.7441842,35.72926822,113-0021,03-5319-1470,,1,1,1,,,文京区,13105,本駒込,6-1-21,コロナ社第三ビル1階,1,,1,1,1,1,,,0:00~14:00;,,0:00~14:00;,,0:00~14:00;,,0:00~14:00;,,,,0:00~14:00;,,,,,本駒込6-1-21コロナ社第三ビル1階
文京内科・循環器クリニック本駒込２丁目１０番３号 ウエストワンビル４F,100242,文京内科・循環器クリニック,東京都文京区本駒込2丁目10番3号,139.7460952,35.72739575,113-0021,03-6304-1567,,1,1,1,,,文京区,13105,本駒込,２丁目１０番３号,ウエストワンビル４F,1,,,,,1,,12:00~13:00;,18:00~19:00;,,,12:00~13:00;,18:00~19:00;,12:00~13:00;,18:00~19:00;,12:00~13:00;,18:00~19:00;,12:00~13:00;,,,,英語のみ,0,本駒込２丁目１０番３号 ウエストワンビル４F
文京クリニック千駄木１-２３-３， カーサリーナ千駄木２階,100243,文京クリニック,東京都文京区千駄木1-23-3,139.7604865,35.72484744,113-0022,03-3823-6614,,1,1,1,,,文京区,13105,千駄木,１-２３-３,カーサリーナ千駄木２階,1,,1,1,,1,,12:00~14:00;,18:00~20:00;,12:00~14:00;,18:00~20:00;,12:00~14:00;,18:00~20:00;,,,12:00~14:00;,18:00~20:00;,12:00~14:00;,,,,,0,千駄木１-２３-３， カーサリーナ千駄木２階
藤原クリニック千駄木３-２-７リエス千駄木１階地下１階,100244,藤原クリニック,東京都文京区千駄木3-2-7,139.7611245,35.72559251,113-0022,03-3821-3767,,1,1,1,1,1,文京区,13105,千駄木,３-２-７,リエス千駄木１階地下１階,1,,1,1,,1,,11:30~12:00;,17:00~18:00;,,17:00~18:00;,11:30~12:00;,17:00~18:00;,11:30~12:00;,,11:30~12:00;,17:00~18:00;,11:30~12:00;,,,,,0,千駄木３-２-７リエス千駄木１階地下１階
いいの耳鼻咽喉科千駄木3丁目48-6 アパートメンツ千駄木１F A,100245,いいの耳鼻咽喉科,東京都文京区千駄木3丁目48-6,139.7630056,35.72999192,113-0022,03-3828-3387,,1,1,1,,,文京区,13105,千駄木,3丁目48-6,アパートメンツ千駄木１F A,1,,1,1,1,1,,,,,13:00~15:00;,,13:00~15:00;,,13:00~15:00;,,13:00~15:00;,,,,,,0,千駄木3丁目48-6 アパートメンツ千駄木１F A
団子坂くつろぎクリニック千駄木５-21-12 カサデコリーナ1階,100246,団子坂くつろぎクリニック,東京都文京区千駄木5-21-12,139.7601444,35.72812787,113-0022,03-5834-7702,,1,1,,,,文京区,13105,千駄木,５-21-12,カサデコリーナ1階,1,,1,,1,1,,,,12:00~13:00;,,,,12:00~13:00;,,,,,,12:00~13:00;,,,0,千駄木５-21-12 カサデコリーナ1階
西岡クリニック向丘1-10-2,100247,西岡クリニック,東京都文京区向丘1-10-2,139.7536872,35.7226795,113-0023,03-3812-1421,,1,1,1,1,1,文京区,13105,向丘,1-10-2,,1,,1,1,1,1,,9:00~12:00;,,9:00~12:00;,,9:00~12:00;,,9:00~12:00;,,9:00~12:00;,,9:00~11:00;,,,,,0,向丘1-10-2
大橋内科クリニック西片2-15-11,100248,大橋内科クリニック,東京都文京区西片2-15-11,139.7546392,35.71883783,113-0024,03-5842-8670,,1,1,,,,文京区,13105,西片,2-15-11,,1,,1,1,1,1,,,12:00~13:00;,,12:00~13:00;,,,,12:00~13:00;,,12:00~13:00;,,12:00~13:00;,,,なし,0,西片2-15-11
細部小児科クリニック根津2-14-11-2F,100249,細部小児科クリニック,東京都文京区根津2-14-11,139.7664038,35.71858817,113-0031,03-6303-3162,"クリニックHP内にオンライン診療も来院ネット予約も設置済み
https://hosobe-pediatrics.com/index.html",1,1,1,1,,文京区,13105,根津,2-14-11,2F,1,,1,,1,1,,,12:00~14:00;,,12:00~14:00;,,12:00~14:00;,,14:00~16:00;,,12:00~14:00;,,12:00~14:00;,,,,0,根津2-14-11-2F
細部医院根津１-１-１５,100250,細部医院,東京都文京区根津1-1-15,139.7653037,35.71749672,113-0031,03-3822-6858,,1,1,1,,,文京区,13105,根津,１-１-１５,,1,,1,1,1,1,,9:00~12:00;,15:00~18:00;,9:00~12:00;,15:00~18:00;,9:00~12:00;,15:00~18:00;,,,9:00~12:00;,15:00~18:00;,9:00~11:00;,13:00~14:00;,,,英語,0,根津１-１-１５
猪狩医院根津1-16-8-201,100252,猪狩医院,東京都文京区根津1-16-8,139.764037,35.71864764,113-0031,03-3822-4735,,1,1,1,,,文京区,13105,根津,1-16-8,201,1,,1,1,1,1,,11:45~12:45;,17:30~18:30;,11:45~12:45;,17:30~18:30;,11:45~12:45;,17:30~18:30;,,,11:45~12:45;,17:30~18:30;,11:45~12:45;,,,,,0,根津1-16-8-201
うすだクリニック本郷4-36-5 ネオパリエ1Ｆ,100253,うすだクリニック,東京都文京区本郷4-36-5,139.7582423,35.70877518,113-0033,03-5840-8250,,1,1,1,1,,文京区,13105,本郷,4-36-5,ネオパリエ1Ｆ,1,,1,1,1,1,,,13:00~15:00;,,0,,13:00~15:00;,,0,,13:00~15:00;,,0,,,,0,本郷4-36-5 ネオパリエ1Ｆ
本郷耳鼻咽喉科クリニック本郷4-2-8 フローラビルディング2階,100254,本郷耳鼻咽喉科クリニック,東京都文京区本郷4-2-8,139.7595541,35.70767502,113-0033,03-5689-4133,,1,1,1,1,1,文京区,13105,本郷,4-2-8,フローラビルディング2階,1,,1,1,,,,10:00~12:00;,15:00~17:00;,10:00~12:00;,15:00~17:00;,10:00~12:00;,15:00~17:00;,,,10:00~12:00;,15:00~17:00;,10:00~12:00;,,,,英語,0,本郷4-2-8 フローラビルディング2階
本郷真砂ハートクリニック本郷４-２０-１２,100255,本郷真砂ハートクリニック,東京都文京区本郷4-20-12,139.7548441,35.70930555,113-0033,03-3814-1155,,1,1,1,1,1,文京区,13105,本郷,４-２０-１２,,1,,1,,1,1,,,14:00~18:00;,,14:00~18:00;,,,,14:00~18:00;,,14:00~18:00;,,23:00~13:00;,,,なし,0,本郷４-２０-１２
坂口医院本郷４-９-２２,100256,坂口医院,東京都文京区本郷4-9-22,139.7564248,35.70883017,113-0033,03-3811-1560,,1,1,1,,,文京区,13105,本郷,４-９-２２,,1,,1,,,1,,9:00~13:00;,15:00~19:00;,9:00~13:00;,15:00~19:00;,9:00~13:00;,15:00~17:00;,,,9:00~13:00;,15:00~19:00;,9:00~13:00;,,,,,,本郷４-９-２２
医療法人社団よつ葉の会 清家クリニック湯島3-38-13坂東ビル2F,100257,医療法人社団よつ葉の会 清家クリニック,東京都文京区湯島3-38-13,139.7714439,35.70798125,113-0034,03-3831-2438,,1,1,1,1,1,文京区,13105,湯島,3-38-13,坂東ビル2F,1,,1,1,1,1,,10:30~12:30;,15:00~18:00;,10:30~12:30;,15:00~18:00;,10:30~12:30;,,10:30~12:30;,15:00~18:00;,10:30~12:30;,15:00~18:00;,10:30~12:30;,,,,,0,湯島3-38-13坂東ビル2F
医療法人社団 大塚診療所湯島三丁目31番6号1階,100258,医療法人社団 大塚診療所,東京都文京区湯島三丁目31番6号,139.7690781,35.70802467,113-0034,03-3831-2294,,1,1,,1,1,文京区,13105,湯島,三丁目31番6号,1階,,,1,1,,,,,12:00~13:00;,,12:00~13:00;,,12:00~13:00;,,12:00~13:00;,,12:00~13:00;,,,,,日本語、英語,0,湯島三丁目31番6号1階
医療法人社団大坪会 東都文京病院湯島三丁目5番7号,100259,医療法人社団大坪会 東都文京病院,東京都文京区湯島三丁目5番7号,139.767849,35.70420478,113-0034,03-3831-2181,,1,1,1,1,1,文京区,13105,湯島,三丁目5番7号,,1,,1,1,1,1,,9:00~12:00;,13:00~17:00;,9:00~12:00;,13:00~17:00;,9:00~12:00;,13:00~17:00;,9:00~12:00;,13:00~17:00;,9:00~12:00;,13:00~17:00;,9:00~12:00;,,,,,0,湯島三丁目5番7号
順天堂大学医学部附属順天堂医院本郷3丁目1番3号,100260,順天堂大学医学部附属順天堂医院,東京都文京区本郷3丁目1番3号,139.7626058,35.70240456,113-8431,03-3813-3111,,1,1,1,1,1,文京区,13105,本郷,3丁目1番3号,,1,,,1,,1,,0:00~12:00;,12:00~24:00;,0:00~12:00;,12:00~24:00;,0:00~12:00;,12:00~24:00;,0:00~12:00;,12:00~24:00;,0:00~12:00;,12:00~24:00;,0:00~12:00;,12:00~24:00;,0:00~12:00;,12:00~24:00;,,0,本郷3丁目1番3号
東京都立駒込病院本駒込三丁目１８番２２号,100261,東京都立駒込病院,東京都文京区本駒込三丁目18番22号,139.756393,35.72984276,113-8677,03-3823-2101,,1,1,,,,文京区,13105,本駒込,三丁目１８番２２号,,1,,1,1,,,,9:00~12:00;,12:00~17:00;,9:00~12:00;,12:00~17:00;,9:00~12:00;,12:00~17:00;,9:00~12:00;,12:00~17:00;,9:00~12:00;,12:00~17:00;,,,,,,0,本駒込三丁目１８番２２号
医療法人社団菊和会 谷中クリニック谷中3-13-10,100262,医療法人社団菊和会 谷中クリニック,東京都台東区谷中3-13-10,139.7646299,35.72843657,110-0001,03-3823-1261,,1,1,1,1,,台東区,13106,谷中,3-13-10,,1,,,1,,1,,,14:30;,,14:30;,,14:30;,,,,14:30;,,,,,,0,谷中3-13-10
医療法人社団浩佳会かとう医院根岸３-１２-１４ 1階,100263,医療法人社団浩佳会かとう医院,東京都台東区根岸3-12-14,139.7798034,35.72331774,110-0003,03-5603-7161,,1,1,,,,台東区,13106,根岸,３-１２-１４,1階,1,,1,1,1,1,,10:00~11:00;,0:00~,,,10:00~11:00;,0:00~,10:00~11:00;,0:00~,10:00~11:00;,0:00~,,,,,,0,根岸３-１２-１４ 1階
医療法人社団雄翔会あさひ上野クリニック上野３-１６-４文行堂ビル２F,100264,医療法人社団雄翔会あさひ上野クリニック,東京都台東区上野3-16-4,139.772325,35.70540461,110-0005,03-5818-7070,,1,1,1,,1,台東区,13106,上野,３-１６-４,文行堂ビル２F,1,,1,1,,1,,9:00~13:00;,15:00~18:00;,9:00~13:00;,15:00~18:00;,9:00~13:00;,15:00~18:00;,9:00~13:00;,15:00~18:00;,9:00~13:00;,15:00~18:00;,,,,,なし,0,上野３-１６-４文行堂ビル２F
上野耳鼻咽喉科クリニック上野6-16-19 新丸屋ビル４階,100265,上野耳鼻咽喉科クリニック,東京都台東区上野6-16-19,139.7762645,35.71057331,110-0005,03-3834-2822,,1,1,1,,,台東区,13106,上野,6-16-19,新丸屋ビル４階,1,,1,1,,1,,10:00~13:00;,15:45~18:00;,10:00~13:00;,15:45~18:00;,,,10:00~13:00;,15:45~18:00;,10:00~13:00;,15:45~18:00;,9:00~12:00;,,,,,0,上野6-16-19 新丸屋ビル４階
上野国際医院上野4-5-4 ミヤタビル2F,100266,上野国際医院,東京都台東区上野4-5-4,139.7735376,35.70881001,110-0005,03-5846-5355,,1,1,1,,,台東区,13106,上野,4-5-4,ミヤタビル2F,1,,1,1,1,,,10:00~13:00;,15:00~18:00;,10:00~13:00;,15:00~18:00;,,,10:00~13:00;,,,,,,,,英語 中国語,1,上野4-5-4 ミヤタビル2F
上野御徒町内科クリニック上野6-2-14 喜久屋ビル7階,100267,上野御徒町内科クリニック,東京都台東区上野6-2-14,139.7755003,35.70800036,110-0005,web予約,https://uonc.jp/,1,1,,,,台東区,13106,上野,6-2-14, 喜久屋ビル7階,1,,,,,1,,,,12:30~13:00;,17:30~18:00;,12:30~13:00;,17:30~18:00;,12:30~13:00;,17:30~18:00;,12:30~13:00;,17:30~18:00;,,,,,,0,上野6-2-14 喜久屋ビル7階
三倉クリニック上野１丁目１６番１６号 第２三倉ビル１Ｆ,100268,三倉クリニック,東京都台東区上野1丁目16番16号,139.7712395,35.70718949,110-0005,03-5807-8171,,1,1,1,,,台東区,13106,上野,１丁目１６番１６号,第２三倉ビル１Ｆ,1,,1,1,1,1,,12:00~13:00;,18:00~19:00;,12:00~13:00;,18:00~19:00;,12:00~13:00;,18:00~19:00;,12:00~13:00;,18:00~19:00;,12:00~13:00;,18:00~19:00;,,,,,無し,0,上野１丁目１６番１６号 第２三倉ビル１Ｆ
医療法人社団同善会 同善会クリニック三ノ輪2‐12‐12,100269,医療法人社団同善会 同善会クリニック,東京都台東区三ﾉ輪2-12-12,139.7930771,35.73000835,110-0011,03-3801-6180,,1,1,1,,,台東区,13106,三ノ輪,2‐12‐12,,1,,1,1,1,1,,9:00~13:00;,14:00~18:00;,9:00~13:00;,14:00~18:00;,9:00~12:00;,14:00~17:00;,9:00~13:00;,14:00~18:00;,9:00~13:00;,14:00~18:00;,9:00~13:00;,,,,,,三ノ輪2‐12‐12
東京保健生活協同組合 竜泉協立診療所竜泉3-1-2,100270,東京保健生活協同組合 竜泉協立診療所,東京都台東区竜泉3-1-2,139.7955324,35.72610238,110-0012,03-3873-4373,,1,1,,,,台東区,13106,竜泉,3-1-2,,1,,1,1,1,1,,12:00~13:00;,,,,,,,,12:00~13:00;,,,,,,,0,竜泉3-1-2
城所医院北上野２-２６-５,100271,城所医院,東京都台東区北上野2-26-5,139.785078,35.71865196,110-0014,03-3844-0510,,1,1,,,,台東区,13106,北上野,２-２６-５,,,,,,,,,12:00~13:00;,18:00~19:00;,,18:00~19:00;,,,12:00~13:00;,18:00~19:00;,12:00~13:00;,18:00~19:00;,12:00~13:00;,,,,,,北上野２-２６-５
上野なかのクリニック北上野1-9-13 高松ビル1階,100272,上野なかのクリニック,東京都台東区北上野1-9-13,139.7827669,35.71676884,110-0014,03-5828-3007,,1,1,1,,,台東区,13106,北上野,1-9-13,高松ビル1階,1,,1,,1,1,,12:00~13:00;,17:00~18:00;,12:00~13:00;,17:00~18:00;,12:00~13:00;,17:00~18:00;,12:00~13:00;,,12:00~13:00;,17:00~18:00;,12:00~13:00;,,0,,英語,,北上野1-9-13 高松ビル1階
上野ロイヤルガーデンクリニック東上野３丁目１４-７ 龍田ビル３階,100273,上野ロイヤルガーデンクリニック,東京都台東区東上野3丁目14-7,139.7791138,35.71079132,110-0015,03-5846-8378,,1,1,1,,,台東区,13106,東上野,３丁目１４-７,龍田ビル３階,1,,1,1,,1,,9:00~12:00;,14:00~17:00;,9:00~12:00;,14:00~17:00;,9:00~12:00;,14:00~17:00;,,,9:00~12:00;,14:00~17:00;,9:00~11:30;,,9:00~11:30;,,中国語 英語,1,東上野３丁目１４-７ 龍田ビル３階
ぞうさん内科クリニック東上野2-22-5 旭ビル1階101号室,100274,ぞうさん内科クリニック,東京都台東区東上野2-22-5,139.7786697,35.70983202,110-0015,03-3837-7775,,1,1,,,,台東区,13106,東上野,2-22-5, 旭ビル1階101号室,1,,1,1,,1,,10:30~14:00;,17:00~21:00;,10:30~14:00;,17:00~21:00;,9:30~13:00;,0,10:30~14:00;,17:00~21:00;,10:30~14:00;,17:00~21:00;,,15:00~19:00;,,15:00~19:00;,,1,東上野2-22-5 旭ビル1階101号室
医療法人社団 椿診療所日本堤1-6-11,100275,医療法人社団 椿診療所,東京都台東区日本堤1-6-11,139.7980006,35.72516159,111-0021,03-3876-1718,,1,1,,,,台東区,13106,日本堤,1-6-11,,1,,1,,1,,,11:00~13:00;,15:30~17:00;,11:00~13:00;,15:30~17:00;,11:00~13:00;,15:30~17:00;,11:00~13:00;,0,11:00~13:00;,15:30~17:00;,11:00~13:00;,0,,,,0,日本堤1-6-11
くろす内科クリニック清川2-8-11,100276,くろす内科クリニック,東京都台東区清川2-8-11,139.8034657,35.72666724,111-0022,03-3872-0298,,1,1,1,1,1,台東区,13106,清川,2-8-11,,1,,,1,1,1,,8:30~9:30;,14:45~15:45;,8:30~9:30;,14:45~15:45;,8:30~9:30;,14:45~15:45;,,,8:30~9:30;,14:45~15:45;,8:30~9:30;,,,,無。本邦外・邦人台東区民⇒かりつけ医から臨時PCRセンターへ予約取付が可能。,0,清川2-8-11
医療法人社団梅澤会梅澤医院千束2-20-2,100277,医療法人社団梅澤会梅澤医院,東京都台東区千束2-20-2,139.7895883,35.72078838,111-0031,03-3872-8230,,1,1,1,1,,台東区,13106,千束,2-20-2,,1,,1,1,1,1,,9:00~13:00;,14:30~17:30;,9:00~13:00;,14:30~17:30;,9:00~13:00;,14:30~17:30;,9:00~13:00;,14:30~17:30;,9:00~13:00;,14:30~17:30;,,,,,,0,千束2-20-2
医療法人社団康裕会 浅草クリニック浅草４-１１-６,100278,医療法人社団康裕会 浅草クリニック,東京都台東区浅草4-11-6,139.7966348,35.7185054,111-0032,03-3876-3200,,1,1,1,1,1,台東区,13106,浅草,４-１１-６,,1,,1,1,1,1,,9:00~12:00;,15:30~17:00;,9:00~12:00;,15:30~17:00;,9:00~12:00;,15:30~17:00;,9:00~11:00;,,9:00~12:00;,15:30~17:00;,9:00~12:00;,,,,,0,浅草４-１１-６
あおぞら浅草クリニック浅草６-９-２コレクションホースロード２階,100279,あおぞら浅草クリニック,東京都台東区浅草6-9-2,139.7993192,35.71580617,111-0032,03-6802-4970,,1,1,1,,,台東区,13106,浅草,６-９-２,コレクションホースロード２階,,,,,,,,9:00~13:00;,15:00~18:00;,,,,15:00~18:00;,,,9:00~13:00;,15:00~18:00;,9:00~13:00;,,,,英語,0,浅草６-９-２コレクションホースロード２階
聖愛クリニック浅草5-64-8フュージョナル浅草フォレスト101,100280,聖愛クリニック,東京都台東区浅草5-64-8,139.7977751,35.72194604,111-0032,03-3874-5341,,1,1,,1,1,台東区,13106,浅草,5-64-8,フュージョナル浅草フォレスト101,,,1,,1,,,12:30~13:00;,14:00~15:30;,12:30~13:00;,15:00~15:30;,12:30~13:00;,15:00~15:30;,,,12:30~13:00;,15:00~15:30;,12:30~13:00;,14:00~15:30;,,,なし,0,浅草5-64-8フュージョナル浅草フォレスト101
柳澤総合内科医院・浅草花川戸１-１４-１８ 1階,100281,柳澤総合内科医院・浅草,東京都台東区花川戸1-14-18,139.7998424,35.71381023,111-0033,03-3844-0668,,1,1,1,1,1,台東区,13106,花川戸,１-１４-１８,1階,1,,,1,1,1,,9:00~12:00;,15:00~18:00;,9:00~12:00;,15:00~18:00;,9:00~12:00;,15:00~18:00;,,,9:00~12:00;,15:00~18:00;,9:00~12:00;,,,,英語,0,花川戸１-１４-１８ 1階
あさくさ雷門前クリニック雷門2-11-8冨山ビル１,100282,あさくさ雷門前クリニック,東京都台東区雷門2-11-8,139.7959307,35.70983055,111-0034,03-5827-2700,,1,1,1,1,1,台東区,13106,雷門,2-11-8,冨山ビル１,1,,,,1,1,,9:00~12:00;,15:00~18:00;,9:00~12:00;,15:00~18:00;,,,9:00~12:00;,15:00~18:00;,9:00~12:00;,15:00~18:00;,9:00~12:00;,15:00~18:00;,,,,0,雷門2-11-8冨山ビル１
山田英明下町クリニック西浅草3-16-6 岩岡ビル1階,100283,山田英明下町クリニック,東京都台東区西浅草3-16-6,139.7920529,35.71483769,111-0035,03-5806-3077,,1,1,,,,台東区,13106,西浅草,3-16-6,岩岡ビル1階,1,,1,1,1,1,,0:00~0:00;,18:30~19:00;,0:00~0:00;,18:30~19:00;,0:00~0:00;,0:00~0:00;,0:00~0:00;,18:30~19:00;,0:00~0:00;,18:30~19:00;,,,,13:00~13:03;,韓国語 英語,0,西浅草3-16-6 岩岡ビル1階
医療法人社団 柴田小児科医院松が谷3-16-4,100284,医療法人社団 柴田小児科医院,東京都台東区松が谷3-16-4,139.7878654,35.71590772,111-0036,03-3841-2291,,1,1,,1,,台東区,13106,松が谷,3-16-4,,,,,,,,,10:00~11:00;,15:00~16:00;,10:00~11:00;,15:00~16:00;,10:00~11:00;,15:00~16:00;,10:00~11:00;,15:00~16:00;,10:00~11:00;,15:00~16:00;,,,,,English,0,松が谷3-16-4
四丁目クリニック元浅草4-6-4　大塚ビル　2階,100285,四丁目クリニック,東京都台東区元浅草4-6-4,139.7851646,35.70912932,111-0041,03-5827-5678,,1,1,1,1,1,台東区,13106,元浅草,4-6-4,大塚ビル　2階,1,,,1,,,,11:30~12:00;,17:30~18:00;,11:30~12:00;,17:30~18:00;,,17:30~18:00;,11:30~12:00;,17:30~18:00;,11:30~12:00;,17:30~18:00;,11:30~12:00;,,,,,0,元浅草4-6-4　大塚ビル　2階
医療法人社団まこと会 服部医院元浅草3-4-7,100286,医療法人社団まこと会 服部医院,東京都台東区元浅草3-4-7,139.7860208,35.70700836,111-0041,03-3842-1851,,1,1,1,1,1,台東区,13106,元浅草,3-4-7,,1,1,,,,1,,,,9:00~12:00;,15:00~17:00;,9:00~12:00;,15:00~17:00;,9:00~12:00;,15:00~17:00;,9:00~12:00;,15:00~17:00;,9:00~12:00;,,,,,0,元浅草3-4-7
ことぶき耳鼻咽喉科寿1-17-10-102,100287,ことぶき耳鼻咽喉科,東京都台東区寿1-17-10,139.7907015,35.70779513,111-0042,03-3843-3107,,1,1,1,1,1,台東区,13106,寿,1-17-10,102,,,1,1,,,,11:30~13:00;,14:30~18:00;,,,11:30~13:00;,14:30~18:00;,11:30~13:00;,14:30~18:00;,11:30~13:00;,14:30~18:00;,9:30~13:00;,,,,英語,0,寿1-17-10-102
あさくさ田原町内科クリニック寿2-10-11 MS田原町ビル2階,100288,あさくさ田原町内科クリニック,東京都台東区寿2-10-11,139.7908731,35.70951128,111-0042,03-3841-1181,,1,1,1,,1,台東区,13106,寿,2-10-11,MS田原町ビル2階,1,,1,1,,1,,9:30~12:30;,15:00~18:00;,9:30~12:30;,15:00~18:00;,,,9:30~12:30;,15:00~18:00;,9:30~12:30;,15:00~18:00;,,,,,,0,寿2-10-11 MS田原町ビル2階
医療法人社団蹊医会 蔵前かとう内科クリニック蔵前3-4-9 蔵ビル3階,100289,医療法人社団蹊医会 蔵前かとう内科クリニック,東京都台東区蔵前3-4-9,139.7908954,35.7034507,111-0051,03-5809-2416,,1,1,,,,台東区,13106,蔵前,3-4-9,蔵ビル3階,,,1,1,,,,12:00~12:30;,18:00~18:30;,,,12:00~12:30;,18:00~18:30;,12:00~12:30;,18:00~18:30;,12:00~12:30;,18:00~18:30;,12:00~12:30;,,,,,0,蔵前3-4-9 蔵ビル3階
医療法人社団静雅会 おがさわらクリニック内科循環器科浅草橋1-35-6 小笠原ビル２F，3F,100290,医療法人社団静雅会 おがさわらクリニック内科循環器科,東京都台東区浅草橋1-35-6,139.7837499,35.69876937,111-0053,03-3865-2737,,1,1,1,,,台東区,13106,浅草橋,1-35-6,小笠原ビル２F，3F,,,,,,,,9:00~12:00;,,9:00~12:00;,15:00~16:00;,9:00~12:00;,15:00~16:00;,9:00~12:00;,,9:00~12:00;,15:00~16:00;,,,,,,0,浅草橋1-35-6 小笠原ビル２F，3F
医療法人社団 良月会 堀 内科クリニック浅草橋1-24-3 杉木立ビル3階,100291,医療法人社団 良月会 堀 内科クリニック,東京都台東区浅草橋1-24-3,139.783035,35.69770055,111-0053,03-3861-8937,,1,1,1,,1,台東区,13106,浅草橋,1-24-3,,1,,1,1,1,1,,10:00~12:00;,16:00~18:00;,10:00~12:00;,16:00~18:00;,10:00~12:00;,,10:00~12:00;,16:00~18:00;,10:00~12:00;,16:00~18:00;,10:00~12:00;,,,,,0,浅草橋1-24-3 杉木立ビル3階
東京保健生活協同組合 蔵前協立診療所三筋2-13-3,100293,東京保健生活協同組合 蔵前協立診療所,東京都台東区三筋2-13-3,139.786472,35.70562451,111-0055,03-3865-0139,,1,1,,,,台東区,13106,三筋,2-13-3,,,,1,1,,,,9:00~12:30;,14:00~16:30;,9:00~12:30;,14:00~16:30;,9:00~12:00;,,9:00~12:30;,14:00~16:30;,9:00~12:30;,14:00~16:30;,9:00~12:00;,,,,なし,0,三筋2-13-3
ほんま内科クリニック横川3-11-14　マツマルビル2階,100294,ほんま内科クリニック,東京都墨田区横川3-11-14,139.814144,35.70511049,130-0003,web予約,https://honma.clinic,1,1,1,1,,墨田区,13107,横川,3-11-14,マツマルビル2階,1,,,,,1,,12:00~13:00;,17:30~18:30;,12:00~13:00;,,12:00~13:00;,17:30~18:30;,,,12:00~13:00;,17:30~18:30;,12:00~13:00;,,,,,0,横川3-11-14　マツマルビル2階
医療法人財団正明会 山田記念病院石原二丁目20番1号,100295,医療法人財団正明会 山田記念病院,東京都墨田区石原二丁目20番1号,139.8007621,35.70100038,130-0011,03-3624-1151,,1,1,1,,,墨田区,13107,石原,二丁目20番1号,,1,,1,1,1,1,1,10:00~12:00;,13:00~17:00;,10:00~12:00;,13:00~17:00;,10:00~12:00;,13:00~17:00;,10:00~12:00;,13:00~17:00;,10:00~12:00;,13:00~17:00;,10:00~12:00;,13:00~17:00;,,,,0,石原二丁目20番1号
社会福祉法人賛育会　賛育会病院太平3-20-2,100296,社会福祉法人賛育会　賛育会病院,東京都墨田区太平3-20-2,139.8139535,35.70259529,130-0012,03-3622-9191,,1,1,,1,1,墨田区,13107,太平,3-20-2,,1,1,,,1,,,,13:00~16:00;,,13:00~16:00;,,,,13:00~16:00;,,13:00~16:00;,,,,,,0,太平3-20-2
すみだゼネラルクリニック太平3-4-8 KOIKE Bld. 3階,100297,すみだゼネラルクリニック,東京都墨田区太平3-4-8,139.814575,35.70016471,130-0013,03-6284-1923,,1,1,1,1,1,墨田区,13107,太平,3-4-8,KOIKE Bld. 3階,1,,1,1,1,1,,12:00~13:00;,,12:00~13:00;,,12:00~13:00;,,12:00~13:00;,,12:00~13:00;,,,15:00~16:00;,,,,1,太平3-4-8 KOIKE Bld. 3階
両国北斎診療所亀沢1-27-8 岩瀬ビル2階,100298,両国北斎診療所,東京都墨田区亀沢1-27-8,139.7997946,35.69867017,130-0014,03-5809-7530,,1,1,,,,墨田区,13107,亀沢,1-27-8,岩瀬ビル2階,1,,1,1,,1,,10:30~12:30;,,10:00~13:00;,,10:00~13:00;,,10:00~13:00;,,10:00~13:00;,,,,,,,0,亀沢1-27-8 岩瀬ビル2階
医療法人社団東京ハート会 両国キッズクリニック緑1-14-4 両国TYビル３階,100300,医療法人社団東京ハート会 両国キッズクリニック,東京都墨田区緑1-14-4,139.7991982,35.69443777,130-0021,web予約,http://www.tyo-heart.jp/r-kids/,1,1,,2,,墨田区,13107,緑,1-14-4,両国TYビル３階,,,,,,,,9:00~12:00;,16:00~18:00;,9:00~12:00;,16:00~18:00;,9:00~12:00;,16:00~18:00;,,,9:00~12:00;,16:00~18:00;,9:00~12:00;,,,,なし,0,緑1-14-4 両国TYビル３階
医療法人社団俊爽会 菊川内科皮膚科クリニック菊川２-１-４-１F,100301,医療法人社団俊爽会 菊川内科皮膚科クリニック,東京都墨田区菊川2-1-4,139.8049434,35.68727271,130-0024,03-5638-1515,,1,1,1,,,墨田区,13107,菊川,２-１-４,１F,1,1,1,1,,1,,9:00~12:00;,14:00~17:00;,9:00~12:00;,14:00~17:00;,9:00~12:00;,14:00~17:00;,9:00~12:00;,14:00~17:00;,9:00~12:00;,14:00~17:00;,9:00~12:00;,,9:00~12:00;,,無し,0,菊川２-１-４-１F
社会福祉法人同愛記念病院財団 同愛記念病院横網2-1-11,100302,社会福祉法人同愛記念病院財団 同愛記念病院,東京都墨田区横網2-1-11,139.794137,35.69955815,130-8587,03-3625-6381,,1,1,1,,,墨田区,13107,横網,2-1-11,,1,1,,1,,,,,13:00~17:00;,,13:00~17:00;,,13:00~17:00;,,13:00~17:00;,,13:00~17:00;,,,,,,0,横網2-1-11
鈴木こどもクリニック墨田４-４５-１,100303,鈴木こどもクリニック,東京都墨田区墨田4-45-1,139.82349,35.73075501,131-0031,03-3619-4970,,1,1,,2,,墨田区,13107,墨田,４-４５-１,,1,,1,1,,,,11:00~12:00;,15:15~16:15;,11:00~12:00;,15:15~16:15;,11:00~12:00;,15:15~16:15;,,,11:00~12:00;,15:15~16:15;,11:00~12:00;,,,,,0,墨田４-４５-１
医療法人社団 木村医院墨田5-35-6,100304,医療法人社団 木村医院,東京都墨田区墨田5-35-6,139.8210853,35.73642616,131-0031,03-3618-5501,,1,1,1,1,1,墨田区,13107,墨田,5-35-6,,1,,1,1,,,,11:00~12:00;,17:00~18:00;,11:00~12:00;,17:00~18:00;,,,11:00~12:00;,17:00~18:00;,11:00~12:00;,17:00~18:00;,11:00~12:00;,,,,,0,墨田5-35-6
医療法人社団石誠会すみだ石橋クリニック墨田4-9-20,100305,医療法人社団石誠会すみだ石橋クリニック,東京都墨田区墨田4-9-20,139.8203541,35.73283724,131-0031,03-5631-6686,,1,1,,,,墨田区,13107,墨田,4-9-20,,1,,1,1,,1,,9:00~12:00;,15:00~18:00;,9:00~12:00;,15:00~18:00;,9:00~12:00;,,9:00~12:00;,15:00~18:00;,9:00~12:00;,15:00~18:00;,9:00~12:00;,,,,,0,墨田4-9-20
大倉医院墨田1-10-4,100306,大倉医院,東京都墨田区墨田1-10-4,139.817505,35.72766699,131-0031,03-3611-4077,,1,1,1,,,墨田区,13107,墨田,1-10-4,,1,,,,,1,,13:00~14:00;,19:00~20:00;,13:00~14:00;,19:00~20:00;,13:00~14:00;,19:00~20:00;,13:00~14:00;,19:00~20:00;,13:00~14:00;,19:00~20:00;,13:00~14:00;,,,,,,墨田1-10-4
医療法人 伯鳳会 東京曳舟病院東向島2丁目27-1,100307,医療法人 伯鳳会 東京曳舟病院,東京都墨田区東向島2丁目27-1,139.8169568,35.71754282,131-0031,03-5655-1120,,1,1,1,,,墨田区,13107,東向島,2丁目27-1,,1,,1,1,,1,,9:00~11:00;,14:00~16:00;,9:00~11:00;,14:00~16:00;,9:00~11:00;,14:00~16:00;,9:00~11:00;,14:00~16:00;,9:00~11:00;,14:00~16:00;,9:00~11:00;,14:00~16:00;,,,日本,0,東向島2丁目27-1
医療法人社団清賀会 今里医院東向島5-10-12 今里医院,100308,医療法人社団清賀会 今里医院,東京都墨田区東向島5-10-12,139.8204893,35.72672775,131-0032,03-3612-1234,,1,1,1,,,墨田区,13107,東向島,5-10-12,今里医院,1,,1,,1,1,,11:00~12:00;,17:00~18:00;,11:00~12:00;,17:00~18:00;,11:00~12:00;,17:00~18:00;,,,11:00~12:00;,17:00~18:00;,,,,,中国語、英語,0,東向島5-10-12 今里医院
医療法人社団 松田内科医院東向島６-62-10-1Ｆ,100309,医療法人社団 松田内科医院,東京都墨田区東向島6-62-10,139.8256615,35.72763048,131-0032,03-3611-1663,,1,1,1,,,墨田区,13107,東向島,６-62-10,1Ｆ,1,,1,1,1,1,,9:00~12:00;,16:00~18:00;,9:00~12:00;,16:00~18:00;,,,9:00~12:00;,16:00~18:00;,9:00~12:00;,16:00~18:00;,9:00~12:00;,,,,なし,0,東向島６-62-10-1Ｆ
向島医院東向島3-15-16,100310,向島医院,東京都墨田区東向島3-15-16,139.8147617,35.72384882,131-0032,03-3611-4511,,1,1,,,,墨田区,13107,東向島,3-15-16,,1,,1,1,,1,,9:00~12:00;,15:00~17:00;,9:00~12:00;,15:00~17:00;,9:00~12:00;,15:00~17:00;,,,9:00~12:00;,15:00~17:00;,9:00~12:00;,,,,,0,東向島3-15-16
隅田川診療所向島 1-24-6,100311,隅田川診療所,東京都墨田区向島1-24-6,139.8070362,35.7106314,131-0033,03-3626-5100,,1,1,1,1,1,墨田区,13107,向島,1-24-6,,1,,1,1,1,,,9:00~12:00;,16:00~18:00;,9:00~12:00;,16:00~18:00;,10:00~12:00;,16:00~18:00;,9:00~12:00;,16:00~18:00;,9:00~12:00;,16:00~18:00;,9:00~13:00;,,,,,0,向島 1-24-6
墨田区休日応急診療所向島3-36-7,100312,墨田区休日応急診療所,東京都墨田区向島3-36-7,139.8107391,35.71335581,131-0033,03-5608-3700,,1,1,,1,,墨田区,13107,向島,3-36-7,,,,1,1,,,,,,,,,,,,,,,,9:00~16:30;,,,1,向島3-36-7
医療法人社団正和会平野診療所八広4-48-5,100313,医療法人社団正和会平野診療所,東京都墨田区八広4-48-5,139.8301606,35.72088863,131-0041,03-3611-7967,,1,1,1,1,1,墨田区,13107,八広,4-48-5,,1,,1,1,1,1,,,13:00~15:00;,,13:00~15:00;,,13:00~15:00;,,,,13:00~15:00;,,,,,,0,八広4-48-5
医療法人社団仁寿会中村病院八広二丁目１番１号,100315,医療法人社団仁寿会中村病院,東京都墨田区八広二丁目1番1号,139.8235525,35.71746294,131-0041,03-3612-7131,,1,1,1,,,墨田区,13107,八広,二丁目１番１号,,1,,1,1,,1,,,14:00~17:00;,,14:00~17:00;,,14:00~17:00;,,14:00~17:00;,,14:00~17:00;,,14:00~17:00;,,,特になし,0,八広二丁目１番１号
八広同仁会クリニック八広6-29-14,100316,八広同仁会クリニック,東京都墨田区八広6-29-14,139.8284895,35.72641326,131-0041,03-3619-4471,,1,1,1,,,墨田区,13107,八広,6-29-14,,1,,1,,1,1,,9:00~12:00;,14:00~18:00;,9:00~12:00;,14:00~18:00;,9:00~12:00;,14:00~18:00;,9:00~12:00;,14:00~18:00;,9:00~12:00;,14:00~18:00;,9:00~12:00;,,,,日本語・英語・スペイン語,0,八広6-29-14
医療法人社団弘正会大西耳鼻咽喉科立花1-23-2サンタウン立花207,100317,医療法人社団弘正会大西耳鼻咽喉科,東京都墨田区立花1-23-2,139.8307847,35.70644204,131-0043,03-3613-8733,,1,1,1,,,墨田区,13107,立花,1-23-2,サンタウン立花207,1,,,,,1,,9:00~9:30;,14:30~15:00;,9:00~9:30;,14:30~15:00;,9:00~9:30;,14:30~15:00;,,,9:00~9:30;,14:30~15:00;,,,,,英語,0,立花1-23-2サンタウン立花207
押上駅前 松浦内科クリニック押上１ー１１ー５　菅野ビル１階,100318,押上駅前 松浦内科クリニック,東京都墨田区押上1ｰ11ｰ5,139.8143213,35.71038623,131-0045,03-5637-9388,,1,1,1,,,墨田区,13107,押上,１ー１１ー５,菅野ビル１階,1,,1,1,,1,,9:00~11:30;,15:30~19:00;,9:00~11:30;,15:30~19:00;,9:00~11:30;,15:30~19:00;,,,9:00~11:30;,15:30~19:00;,9:00~11:30;,,,,英語,0,押上１ー１１ー５　菅野ビル１階
医療法人社団 隆靖会 墨田中央病院京島３丁目６７番１号,100320,医療法人社団 隆靖会 墨田中央病院,東京都墨田区京島3丁目67番1号,139.8263669,35.71307803,131-0046,03-3617-1414,,1,1,1,,,墨田区,13107,京島,３丁目６７番１号,,1,,1,1,,,,9:00~12:00;,13:00~17:00;,9:00~12:00;,13:00~17:00;,9:00~12:00;,13:00~17:00;,9:00~12:00;,13:00~17:00;,9:00~12:00;,13:00~17:00;,9:00~12:00;,13:00~17:00;,,,簡単な英会話のみ,0,京島３丁目６７番１号
医療法人社団理仁会ツインタワーすみとしクリニック住吉1-19-1ツインタワーすみとし204,100321,医療法人社団理仁会ツインタワーすみとしクリニック,東京都江東区住吉1-19-1,139.8132012,35.69001171,135-0002,03-3635-0010,,1,1,,,,江東区,13108,住吉,1-19-1,ツインタワーすみとし204,1,,1,1,1,1,,9:00~12:00;,15:00~18:00;,9:00~12:00;,15:00~18:00;,9:00~12:00;,,9:00~12:00;,15:00~18:00;,9:00~12:00;,15:00~18:00;,10:00~13:00;,,,,,0,住吉1-19-1ツインタワーすみとし204
社会福祉法人あそか会 あそか病院住吉１-１８-１,100323,社会福祉法人あそか会 あそか病院,東京都江東区住吉1-18-1,139.81189,35.68991205,135-0002,03-3632-0290,,1,1,1,,,江東区,13108,住吉,１-１８-１,,,,1,1,,,,8:30~12:30;,12:30~17:30;,8:30~12:30;,12:30~17:30;,8:30~12:30;,12:30~17:30;,8:30~12:30;,12:30~17:30;,8:30~12:30;,12:30~17:30;,8:30~12:30;,,,,,0,住吉１-１８-１
医療法人社団渡辺こどもクリニック森下２-２０-１２フォーレドサンテ２F,100324,医療法人社団渡辺こどもクリニック,東京都江東区森下2-20-12,139.7996365,35.68838214,135-0004,03-5625-2565,,1,1,,1,1,江東区,13108,森下,２-２０-１２,フォーレドサンテ２F,1,,1,1,,1,,11:00~12:00;,19:00~20:00;,11:00~12:00;,19:00~20:00;,,,11:00~12:00;,19:00~20:00;,11:00~12:00;,,11:00~12:00;,15:00~16:00;,,,なんとか英語,0,森下２-２０-１２フォーレドサンテ２F
あおばクリニック森下2-20-12-202,100325,あおばクリニック,東京都江東区森下2-20-12,139.7996643,35.68838214,135-0004,03-5669-8783,www.aobaclinic.com,1,1,1,1,1,江東区,13108,森下,2-20-12,202,1,1,1,1,1,1,,9:30~12:30;,15:00~18:00;,9:30~12:30;,15:00~18:00;,9:30~12:30;,15:00~18:00;,,,9:30~12:30;,15:00~18:00;,8:45~12:00;,14:15~16:00;,,,,0,森下2-20-12-202
森下駅前クリニック森下1-16-7 太田ビル1階,100326,森下駅前クリニック,東京都江東区森下1-16-7,139.7972527,35.68836399,135-0004,03-6666-9335,要電話予約,1,1,1,1,1,江東区,13108,森下,1-16-7,太田ビル1階,1,,1,1,1,1,,9:00~13:00;,15:00~18:00;,,,9:00~13:00;,15:00~18:00;,9:00~13:00;,15:00~18:00;,9:00~13:00;,15:00~18:00;,9:00~13:00;,,9:00~13:00;,,,0,森下1-16-7 太田ビル1階
医）済世会 望月内科クリニック高橋 13-2-1階,100327,医）済世会 望月内科クリニック,東京都江東区高橋,139.8001352,35.68483523,135-0005,03-5669-1531,,1,1,1,,,江東区,13108,高橋,13-2,1階,1,,,1,,1,,12:00~12:30;,,12:00~12:30;,,12:00~12:30;,,,,12:00~12:30;,,,,,,,0,高橋 13-2-1階
千石はやし内科クリニック千石２-１０-６ JUTOWERFRONT 千石 1階,100328,千石はやし内科クリニック,東京都江東区千石2-10-6,139.8171502,35.67837532,135-0015,03-6666-7884,,1,1,1,,,江東区,13108,千石,２-１０-６,JUTOWERFRONT 千石 1階,1,,1,1,1,1,,11:30~12:00;,17:30~18:00;,11:30~12:00;,17:30~18:00;,,,11:30~12:00;,17:30~18:00;,11:30~12:00;,17:30~18:00;,12:00~13:00;,13:00~13:00;,,,英語,0,千石２-１０-６ JUTOWERFRONT 千石 1階
東陽町耳鼻咽喉科・アレルギー科千石2-10-6 JUTOWERFRONT千石1F,100329,東陽町耳鼻咽喉科・アレルギー科,東京都江東区千石2-10-6,139.817178,35.67837532,135-0015,03-5634-1133,受診前に必ずお電話ください。,1,1,,1,,江東区,13108,千石,2-10-6,JUTOWERFRONT千石1F,1,,,,1,1,,12:00~14:00;,14:00~16:00;,12:00~14:00;,14:00~16:00;,12:00~14:00;,14:00~16:00;,,,12:00~14:00;,14:00~16:00;,9:00~13:00;,,,,英語,0,千石2-10-6 JUTOWERFRONT千石1F
医療法人社団眞應会東京イースト21クリニック東陽六丁目3番2号 東京イースト21内イーストタワー2階202のA,100330,医療法人社団眞應会東京イースト21クリニック,東京都江東区東陽六丁目3番2号,139.815734,35.67530386,135-0016,03-5632-3821,,1,1,1,,,江東区,13108,東陽,六丁目3番2号,東京イースト21内イーストタワー2階202のA,1,,1,1,1,1,,,15:00~18:00;,9:00~13:00;,15:00~18:00;,12:00~14:00;,16:00~18:00;,,15:00~18:00;,12:00~14:00;,16:00~18:00;,,15:00~17:00;,,,英語（少し）,0,東陽六丁目3番2号 東京イースト21内イーストタワー2階202のA
大陽ビルクリニック東陽３-２３-６-102,100331,大陽ビルクリニック,東京都江東区東陽3-23-6-102,139.8134769,35.67000326,135-0016,03-5635-5715,,1,1,1,1,,江東区,13108,東陽,３-２３-６-102,,1,,1,1,1,1,,11:00~13:00;,15:00~17:00;,11:00~13:00;,15:00~17:00;,,,11:00~13:00;,15:00~17:00;,11:00~13:00;,15:00~17:00;,11:00~13:00;,,,,なし,0,東陽３-２３-６-102
医療法人社団 城東桐和会 東陽町駅前クリニック東陽三丁目２７番１７号 長谷川ビル３階,100332,医療法人社団 城東桐和会 東陽町駅前クリニック,東京都江東区東陽三丁目27番17号,139.8161421,35.67069142,135-0016,03-5665-2381,,1,1,1,1,,江東区,13108,東陽,三丁目２７番１７号,長谷川ビル３階,1,1,1,,1,1,,9:00~13:00;,14:30~18:30;,9:00~13:00;,14:30~18:30;,9:00~13:00;,14:30~18:30;,9:00~13:00;,14:30~18:30;,9:00~13:00;,14:30~18:30;,9:00~12:00;,13:00~15:00;,,,,0,東陽三丁目２７番１７号 長谷川ビル３階
さくらハートクリニック東陽4-5-15 東陽町サンキビル3F,100333,さくらハートクリニック,東京都江東区東陽4-5-15,139.8190963,35.6699922,135-0016,03-5665-2556,,1,1,1,,,江東区,13108,東陽,4-5-15,東陽町サンキビル3F,1,,1,,1,1,,,13:00~15:00;,,13:00~15:00;,,13:00~15:00;,,,,,,,,,なし,0,東陽4-5-15 東陽町サンキビル3F
清澄白河こどもクリニック三好３―１-３,100335,清澄白河こどもクリニック,東京都江東区三好3ｰ1-3,139.8038711,35.67944355,135-0022,web予約,http://www.56029119.com/i/,1,1,1,2,,江東区,13108,三好,３―１-３,,1,,,1,1,1,,11:00~12:00;,18:00~19:00;,11:00~12:00;,18:00~19:00;,,,11:00~12:00;,18:00~19:00;,11:00~12:00;,18:00~19:00;,11:00~12:00;,,,,,0,三好３―１-３
医療法人社団片桐会　たけし在宅クリニック福住1-17-8　東亜門前仲町ビル5Ｆ,100336,医療法人社団片桐会　たけし在宅クリニック,東京都江東区福住1-17-8,139.7942512,35.67486196,135-0032,03-5639-9163,,1,1,,,,江東区,13108,福住,1-17-8,東亜門前仲町ビル5Ｆ,1,1,,1,1,1,,,15:00~18:00;,,15:00~18:00;,,15:00~18:00;,,,,,,,,,,0,福住1-17-8　東亜門前仲町ビル5Ｆ
鈴木クリニック木場2-19-2 H・R・Hビル3F,100337,鈴木クリニック,東京都江東区木場2-19-2,139.8049857,35.6698324,135-0042,03-3820-5005,,1,1,1,,,江東区,13108,木場,2-19-2,H・R・Hビル3F,1,1,1,1,,1,,,13:00~15:00;,,13:00~15:00;,,13:00~15:00;,,,,13:00~15:00;,,,,,,,木場2-19-2 H・R・Hビル3F
医療法人社団おかの小児科古石場2-14-1ウェルタワー深川202,100338,医療法人社団おかの小児科,東京都江東区古石場2-14-1,139.7997855,35.66710401,135-0045,03-5621-2336,,1,1,1,1,,江東区,13108,古石場,2-14-1,ウェルタワー深川202,1,,1,1,1,1,,12:00~13:00;,,12:00~13:00;,,12:00~13:00;,,,,12:00~13:00;,,,0:00~13:00;,,,,,古石場2-14-1ウェルタワー深川202
医療法人社団ユメイン 野崎クリニック門前仲町2-11-8,100339,医療法人社団ユメイン 野崎クリニック,東京都江東区門前仲町2-11-8,139.7966589,35.6731728,135-0048,03-5621-5026,,1,1,1,,,江東区,13108,門前仲町,2-11-8,,1,,1,1,,,,10:00~14:00;,16:00~20:00;,10:00~14:00;,16:00~20:00;,,,10:00~14:00;,16:00~20:00;,10:00~14:00;,16:00~20:00;,10:00~14:00;,,,,,0,門前仲町2-11-8
潮見駅前内科クリニック潮見2-7-1潮見駅前プラザ二番街1階,100340,潮見駅前内科クリニック,東京都江東区潮見2-7-1,139.8175175,35.65778836,135-0052,web予約,https://web.booking.clius.jp/reserve/42765740eea645428f3e1f0f41ce8c97,1,1,1,1,1,江東区,13108,潮見,2-7-1,潮見駅前プラザ二番街1階,1,,,,,1,,9:30~12:30;,14:30~18:30;,9:30~12:30;,14:30~18:30;,9:30~12:30;,14:30~18:30;,,,9:30~12:30;,14:30~18:30;,9:30~12:30;,,,,,0,潮見2-7-1潮見駅前プラザ二番街1階
たけうちこどもクリニック豊洲4-9-13―132,100341,たけうちこどもクリニック,東京都江東区豊洲4-9-13ｰ132,139.8004277,35.65518129,135-0061,03-3533-2415,https://tkc.atat.jp/,1,1,,1,,江東区,13108,豊洲,4-9-13―132,,1,,1,1,,1,,9:00~9:30;,16:30~17:00;,9:00~9:30;,,9:00~9:30;,16:30~17:00;,,,9:00~9:30;,16:30~17:00;,9:00~9:30;,,,,日本語のみ,0,豊洲4-9-13―132
医療法人社団 公雄会 豊洲寺沢クリニック豊洲２-５-３ １階,100342,医療法人社団 公雄会 豊洲寺沢クリニック,東京都江東区豊洲2-5-3,139.7922007,35.65836093,135-0061,03-6273-2030,,1,1,1,,,江東区,13108,豊洲,２-５-３,１階,1,,,,,1,,12:00~13:00;,,12:00~13:00;,,12:00~13:00;,,,,12:00~13:00;,,12:00~13:00;,,,,,0,豊洲２-５-３ １階
医療法人社団誠礼会 とよす内科クリニック豊洲4-2-2-2F,100343,医療法人社団誠礼会 とよす内科クリニック,東京都江東区豊洲4-2-2,139.7978815,35.65515007,135-0061,03-5144-5155,,1,1,1,,1,江東区,13108,豊洲,4-2-2,2F,1,,1,,1,1,,,13:00~15:00;,,13:00~15:00;,,13:00~15:00;,,13:00~15:00;,,13:00~15:00;,,13:00~15:00;,,,,0,豊洲4-2-2-2F
豊洲はるそらファミリークリニック豊洲（次のビルを除く）， 4-10-18 プライヴブルー東京1階,100344,豊洲はるそらファミリークリニック,東京都江東区豊洲4-10-18,139.8015239,35.65443992,135-0061,03-6221-0833,,1,1,1,1,1,江東区,13108,豊洲,4-10-18,プライヴブルー東京1階,1,,1,1,,1,,,16:00~18:00;,,,,,,,,16:00~18:00;,,,,,英語,0,豊洲（次のビルを除く）， 4-10-18 プライヴブルー東京1階
けいこ豊洲こどもクリニック豊洲2-5-3パークシティC棟1階,100345,けいこ豊洲こどもクリニック,東京都江東区豊洲2-5-3,139.7922285,35.65836093,135-0061,03-5547-4192,,1,1,,1,,江東区,13108,豊洲,2-5-3,パークシティC棟1階,1,,1,1,,1,,,,,,,,,,,,,,,16:00~16:30;,,0,豊洲2-5-3パークシティC棟1階
豊洲小児科醫院豊洲5-6-29,100346,豊洲小児科醫院,東京都江東区豊洲5-6-29,139.797023,35.65134863,135-0061,web予約,https://ssc3.doctorqube.com/toyosu-shounika/,1,1,1,2,2,江東区,13108,豊洲,5-6-29,,1,,1,1,1,1,,9:00~12:00;,16:00~18:00;,9:00~12:00;,16:00~18:00;,9:00~12:00;,16:00~18:00;,9:00~12:00;,16:00~18:00;,9:00~12:00;,16:00~18:00;,9:00~12:00;,,9:00~11:00;,,日常会話 程度の英語（non-native),0,豊洲5-6-29
医療法人社団 桐和会 タムスファミリークリニック豊洲豊洲二丁目２番１号 豊洲ベイサイドクロスタワーC棟４階,100347,医療法人社団 桐和会 タムスファミリークリニック豊洲,東京都江東区豊洲二丁目2番1号,139.7944965,35.65495624,135-0061,web予約,https://ssc7.doctorqube.com/tums.familyclinic.toyosu/,1,1,1,1,,江東区,13108,豊洲,二丁目２番１号,豊洲ベイサイドクロスタワーC棟４階,1,1,1,,1,1,,9:00~13:00;,14:30~18:30;,9:00~13:00;,14:30~18:30;,9:00~13:00;,14:30~18:30;,9:00~13:00;,14:30~18:30;,9:00~13:00;,14:30~18:30;,9:00~12:00;,13:00~15:00;,,,,0,豊洲二丁目２番１号 豊洲ベイサイドクロスタワーC棟４階
医療法人社団東雲クリニック東雲１-８-１７,100348,医療法人社団東雲クリニック,東京都江東区東雲1-8-17,139.8007412,35.64496111,135-0062,03-3533-3731,,1,1,,,,江東区,13108,東雲,１-８-１７,,1,,1,1,,1,,12:00~13:00;,17:00~18:00;,12:00~13:00;,17:00~18:00;,,,12:00~13:00;,17:00~18:00;,12:00~13:00;,17:00~18:00;,12:00~13:00;,,,,,0,東雲１-８-１７
のずえ小児科東雲1-9-11-102,100349,のずえ小児科,東京都江東区東雲1-9-11,139.8037215,35.64584675,135-0062,03-5560-6071,,1,1,1,1,1,江東区,13108,東雲,1-9-11,102,1,,1,1,,,,9:00~10:00;,16:00~17:00;,,,9:00~10:00;,16:00~17:00;,9:00~10:00;,16:00~17:00;,,16:00~17:00;,9:00~10:00;,,9:00~10:00;,,日本 英語は少し,0,東雲1-9-11-102
かしわぎクリニック東雲１-９-２１-１０２,100350,かしわぎクリニック,東京都江東区東雲1-9-21,139.803598,35.64873184,135-0062,03-3532-6600,,1,1,1,,,江東区,13108,東雲,１-９-２１,１０２,1,,1,,1,1,,11:00~12:00;,,11:00~12:00;,,11:00~12:00;,,,,11:00~12:00;,,,15:00~16:00;,,,,0,東雲１-９-２１-１０２
医療法人社団モルゲンロート有明こどもクリニック豊洲院豊洲5-5-25 昭和大学豊洲寮1階,100351,医療法人社団モルゲンロート有明こどもクリニック豊洲院,東京都江東区豊洲5-5-25,139.7971819,35.65252444,135-0063,03-6204-2733,,1,1,,1,,江東区,13108,豊洲,5-5-25,昭和大学豊洲寮1階,1,,1,1,1,1,,8:00~12:00;,12:00~21:00;,8:00~12:00;,12:00~21:00;,8:00~12:00;,12:00~21:00;,8:00~12:00;,12:00~21:00;,8:00~12:00;,12:00~21:00;,9:00~12:00;,12:00~17:00;,9:00~12:00;,12:00~17:00;,英語,,豊洲5-5-25 昭和大学豊洲寮1階
